name,state,breast,colorectal,prostate,lung,melanoma,poverty,income,region,black_alone,white_alone,asian_alone,lat,lon
anchorage borough,ak,127.8,40.9,113,61.5,14.5,7.7,76362,pacific,0.05658807768248803,0.6425509737038163,0.08938898373318277,61.148133,-149.194236
fairbanks north star borough,ak,133.2,39.2,82.1,58.1,13.1,8.8,67204,pacific,0.041767348976535196,0.7650224663005492,0.030324513230154768,64.807921,-146.563655
juneau borough,ak,101.6,36.9,117.9,35.1,13.7,7.5,83642,pacific,0.01171442626983151,0.6941028163817489,0.07170089779854877,58.445711,-134.234239
kenai peninsula borough,ak,127.4,41,96.5,64.9,12.3,10.1,61629,pacific,0.005985738327810261,0.8364071690060204,0.013203324253517706,60.115308,-151.704297
matanuska-susitna borough,ak,119.8,37.5,121.4,69.7,15,9.4,72371,pacific,0.010559490874451504,0.8367636477872699,0.013336170816485778,62.304529,-149.578978
autauga,al,150.8,46.2,110.6,74.9,25.4,13.5,51868,east_south_central,0.18521680684481098,0.768606150883758,0.008065541608385256,32.534921,-86.642757
baldwin,al,117.5,41.5,121.3,66.9,30.9,14.2,47539,east_south_central,0.09319833592301138,0.8643225903463485,0.006706430755350609,30.660974,-87.749845
barbour,al,132.6,49.6,159.8,74.6,12.3,28.2,30981,east_south_central,0.4792966108063425,0.46704741865183735,0.004847072969114,31.869603,-85.393197
bibb,al,158.1,44.5,116.7,86.4,15.6,23.1,39781,east_south_central,0.21212121212121213,0.7695374800637959,6.202374623427255e-4,32.998644,-87.126439
blount,al,110.2,41.1,95.6,69.7,27.1,17.2,44392,east_south_central,0.01568348814640233,0.9544052405379176,0.0015943435463746014,33.980867,-86.567371
butler,al,142.1,47.8,157,58.3,17.7,28.8,31041,east_south_central,0.4376232741617357,0.5362919132149901,0.010009861932938856,31.752434,-86.680289
calhoun,al,104.5,46.3,148.6,84.2,17.8,21.4,37898,east_south_central,0.20530189932949613,0.7488328745372488,0.009311115521689981,33.771428,-85.826035
chambers,al,114,49.7,160.9,75.4,16.4,22.5,33883,east_south_central,0.4050502675054383,0.5707860544417661,0.009171615027338468,32.914372,-85.392043
cherokee,al,109.9,35.9,115.7,82.4,17.2,20.1,37478,east_south_central,0.04668494420203112,0.9327721357686218,0.00420898173533614,34.175956,-85.603794
chilton,al,120.4,29.5,112.3,73.9,22.1,20.3,41348,east_south_central,0.10082844558048246,0.8384873450943697,0.004359038729260333,32.847853,-86.718814
clarke,al,111.8,67.1,138,69.5,24.5,25.4,34593,east_south_central,0.4549442588642492,0.533384311989375,0.0045880790437477365,31.67666,-87.83081
clay,al,97.5,44,164.3,83.3,30.2,19.6,33344,east_south_central,0.14781576800415339,0.82896981383965,0,33.269086,-85.860547
cleburne,al,90.6,49.6,115.6,74.9,23.4,18.9,40407,east_south_central,0.02361416850110066,0.9456340470949236,0.005736775398572477,33.674558,-85.518768
coffee,al,121.3,30.3,146.6,71.5,21.8,18.5,44666,east_south_central,0.17191269047478966,0.7637622325508423,0.012217842364338805,31.402627,-85.988207
colbert,al,129.7,46.4,100.7,75.9,26.2,16.3,40032,east_south_central,0.15690457362487817,0.7977453702852308,0.004689482685694319,34.700434,-87.804984
conecuh,al,159.9,52.2,135.2,73.5,19.3,30.5,27196,east_south_central,0.46310152004410493,0.5192565172875483,0.0011026226667716784,31.429267,-86.993681
covington,al,102.6,51.1,103.2,83,21.6,19.2,35187,east_south_central,0.13106628853136845,0.8449998674759469,0.004664846669670545,31.248493,-86.451248
crenshaw,al,109.5,53.8,128.9,61.5,22.5,22.2,34105,east_south_central,0.23834196891191708,0.7149539435808866,0.01669545192861255,31.731486,-86.313548
cullman,al,115.2,40.8,94.4,69.6,32.3,16.4,40142,east_south_central,0.011055634807417974,0.958556741600669,0.006111958286192139,34.131941,-86.867619
dale,al,112.9,35.4,145,76.7,20.9,20.1,41805,east_south_central,0.1966657931340335,0.7442699619005382,0.010240490253391658,31.431819,-85.611032
dallas,al,134,62.4,213.6,76.2,14.4,31.3,27524,east_south_central,0.6951672862453532,0.28687297832279246,0.00393472698305412,32.325975,-87.106479
dekalb,al,84.7,36.7,127.3,60.8,15.4,20,36713,east_south_central,0.015252970946050722,0.8720131948066594,0.0030167613516218616,34.459773,-85.804141
elmore,al,121.8,45.3,108,78.1,31.6,13.4,51650,east_south_central,0.21364428029694776,0.7537087589708117,0.005644972022184617,32.596648,-86.149147
escambia,al,112.1,43.2,121.2,75.5,15,27.8,33455,east_south_central,0.3238811881188119,0.6192211221122113,0.001056105610561056,31.126123,-87.16162
etowah,al,101.8,44.2,142.3,81.9,21.3,19.6,38587,east_south_central,0.15412671845824907,0.8129021022996623,0.006762574615674854,34.045254,-86.034762
fayette,al,113.2,58.9,115.9,77.3,24,20.7,35661,east_south_central,0.12536495263063815,0.8562831436572722,0.0026812846332598464,33.721206,-87.738862
franklin,al,118,45.3,85,72.4,20.5,23.1,33332,east_south_central,0.04519684540588478,0.8910461470243562,0.0032306084312545527,34.441671,-87.843812
geneva,al,105,40.3,120.6,90.3,31.1,23.6,35378,east_south_central,0.09602092284700169,0.8681113394358304,0.003848309359237811,31.095017,-85.838985
henry,al,100.1,39.2,157.5,66.5,27.2,18.2,41590,east_south_central,0.2788735672310467,0.7047768662361087,0,31.514694,-85.241406
houston,al,109,45.9,144.8,70.8,23.9,18.1,39636,east_south_central,0.2664330885254738,0.6962297022841247,0.008335659489272411,31.153184,-85.30252
jackson,al,103.9,45.4,108.3,80.9,20.4,16.9,37204,east_south_central,0.03294175790754258,0.9114393248175182,0.003725669099756691,34.779415,-85.999301
jefferson,al,130.5,43.5,160.1,65.1,17.9,18.9,45024,east_south_central,0.4252005777610545,0.5242013303069659,0.015069124983310474,33.554314,-86.89649
lamar,al,137.8,57.4,145.4,80.4,18.1,23,36475,east_south_central,0.11261197213138063,0.8755154272714346,0,33.779206,-88.096899
lauderdale,al,99,39.8,114.1,69.3,29,17.1,43586,east_south_central,0.09850929933830593,0.8703165984823135,0.006789650370786153,34.901372,-87.653998
lawrence,al,102,48,125.8,88.1,25.7,17.4,40713,east_south_central,0.11366015613316184,0.7809050937696288,9.272275895073729e-4,34.521651,-87.311045
lee,al,116.8,34.9,136.3,59.4,12.9,19.8,44647,east_south_central,0.23235269280986315,0.6994744944688757,0.03622025762112935,32.601136,-85.355563
limestone,al,117.1,37.6,150,73.4,19.1,15.9,50148,east_south_central,0.12743609913912493,0.8145296209712266,0.012464407192793911,34.810076,-86.98137
madison,al,125.9,38.7,122.1,64.8,19.1,13.9,58258,east_south_central,0.24189580339054728,0.6882273775405531,0.024499032782528938,34.76309,-86.550207
marion,al,115.2,46.8,110.6,74.2,19.7,20.8,34162,east_south_central,0.03346671516915242,0.9339594563312279,0.00324084791163729,34.13655,-87.887138
marshall,al,84.6,41.7,106,79.4,23,18.1,38399,east_south_central,0.020955423445532823,0.9247783866122242,0.005881481794909768,34.366962,-86.306637
mobile,al,120.2,49.2,135.2,75.4,20,20.3,42278,east_south_central,0.3531479081128965,0.5957020548358521,0.01964802518036839,30.685147,-88.19753
montgomery,al,125.9,47.9,140.8,61,19,22.1,44013,east_south_central,0.5682038066422741,0.377884886011821,0.022467808893892487,32.220258,-86.207614
morgan,al,113.2,44.8,154.4,80.4,24.6,17.4,44079,east_south_central,0.12175985947890093,0.8187026891388901,0.0067082096106394545,34.453475,-86.852928
pickens,al,160.3,39,150.6,65.6,12.9,23.8,32314,east_south_central,0.41847121045803815,0.5615208063067558,5.987426404550444e-4,33.280877,-88.088693
pike,al,122.7,36,160.8,61.8,28.8,25.3,35944,east_south_central,0.37605553385221024,0.5832256513507829,0.02115575322294678,31.802715,-85.940921
randolph,al,112.4,45,155.4,75.5,15,23.4,35121,east_south_central,0.19584346672562458,0.7717001989829759,0.002255140393544108,33.293787,-85.45907
russell,al,137.1,51.3,158.8,78.7,15.5,23.9,35762,east_south_central,0.4227607613070469,0.5183163926597995,0.007418650658298656,32.28838,-85.184963
shelby,al,130.4,37.8,146.2,57.1,27.4,8.3,68718,east_south_central,0.11603730984554579,0.8121203587261048,0.01984938164903302,33.264278,-86.660648
st. clair,al,109.1,39.8,120.4,74.7,21.5,14,52437,east_south_central,0.09420624653483645,0.8748151912770282,0.00855895398262798,33.715703,-86.314688
talladega,al,105.7,49.3,137.6,74,18.3,19.8,38505,east_south_central,0.32071258497106975,0.6463352949159233,0.005452952860332852,33.380057,-86.165907
tallapoosa,al,107.3,40.2,132.4,70.5,22.1,22.2,37747,east_south_central,0.2746227843156404,0.7026221983495288,0.00507837296743005,32.862405,-85.797502
tuscaloosa,al,135.5,42,160.3,72.3,14.9,17.2,45959,east_south_central,0.31013330304092934,0.653644225592801,0.015034251818778986,33.28955,-87.52503
walker,al,103.6,42.4,139.7,98.3,22.3,22,37193,east_south_central,0.05779580138124495,0.9136950589239705,0.004604149833061455,33.803335,-87.297357
washington,al,116.4,54.1,121.1,74.8,18.8,19.7,41115,east_south_central,0.24773789106393046,0.6553906203796794,0.006505411319415696,31.407604,-88.207877
winston,al,96.1,50.1,101.3,90.8,21.6,21.9,33578,east_south_central,0.004081122725190522,0.9657685420397285,0.0034981051930204473,34.149225,-87.373683
ashley,ar,102.1,62.4,144.7,77,12.3,21.9,36479,west_south_central,0.25918338177140404,0.7169946162275478,0,33.191222,-91.768449
baxter,ar,116,38.6,122,85.6,23.9,15.6,36082,west_south_central,0.002463895394223263,0.9677010148321624,0.005537665886026542,36.287189,-92.336971
benton,ar,115.9,40.4,124.5,56.4,23.9,11.7,56518,west_south_central,0.014818681161843324,0.8827799095546648,0.03552976581264196,36.338723,-94.256187
boone,ar,95.2,44.6,124.1,67.7,24.9,17.2,38410,west_south_central,0.0034583523229940218,0.9652020053081687,0.005120506152650063,36.308599,-93.091563
carroll,ar,113.6,37.8,101.5,59.1,17.6,22.2,34109,west_south_central,0.011484290357529793,0.9337667027807873,0.008847959552184904,36.341028,-93.53825
cleburne,ar,112,43,151.2,83.6,16.8,16.3,41612,west_south_central,0.005588775550084027,0.97119631062649,0.005745104936100363,35.53811,-92.026736
conway,ar,116.3,37.8,128,75,17,21.1,38145,west_south_central,0.11823361823361823,0.8527540360873694,7.597340930674264e-4,35.262215,-92.701315
craighead,ar,99.1,39.9,85,74.6,16.7,20,41608,west_south_central,0.13834026670813732,0.8076474476109016,0.011877454220286925,35.830789,-90.632841
crawford,ar,119.7,46.5,111.2,79.1,23.9,19.2,39384,west_south_central,0.013322137355273144,0.9022881780160512,0.017536777173123193,35.589091,-94.24286
crittenden,ar,95.4,44.6,68.9,75.6,6.5,23.6,37726,west_south_central,0.5071600250449395,0.45117246672456623,0.00654400032316051,35.207942,-90.308859
cross,ar,95.4,69.5,91.2,77.5,23.9,20.6,35438,west_south_central,0.23273125973801143,0.7467251428241676,0.003000750187546887,35.295726,-90.771227
faulkner,ar,118,41.6,143.2,75.9,16.8,14.9,49936,west_south_central,0.11181145519320362,0.835920177383592,0.012440103972030526,35.146979,-92.332044
franklin,ar,86.3,34.4,93,77.1,15.5,20.7,38874,west_south_central,0.009214000786561042,0.943255239058374,0.0035957076240238214,35.512351,-93.890619
fulton,ar,85.5,45.9,117.9,64.7,17.4,22.9,33439,west_south_central,7.385524372230429e-4,0.9650418513047759,0.0014771048744460858,36.38167,-91.818237
garland,ar,115.4,35.3,135.8,80.6,19.7,22.1,39057,west_south_central,0.08195100855651315,0.8552394485116198,0.007114982650150846,34.576686,-93.150425
grant,ar,112.7,62.5,136.7,96.1,19.7,14.2,47089,west_south_central,0.04366618641250138,0.9384351102737448,0.0018286600908788652,34.290018,-92.423583
greene,ar,99.8,42.2,90.2,89.2,12,17.7,40840,west_south_central,0.009395359469653674,0.9594010744085039,0.0013487255686364156,36.117698,-90.559072
hot spring,ar,92.9,44.6,123.7,94.2,18.2,18.5,39927,west_south_central,0.11273923444976076,0.8575657894736842,0.002541866028708134,34.317634,-92.946006
independence,ar,94.8,43.5,135.4,82.3,19.6,18.4,37761,west_south_central,0.019497704563867135,0.925411828247367,0.008587631650013503,35.74158,-91.569724
izard,ar,123,40.9,128.2,55.9,17.6,20.8,33308,west_south_central,0.012331921848302504,0.9690216180075775,0.0015600624024961,36.094875,-91.913417
jackson,ar,91.3,61.3,127.5,104.4,21.5,27.5,32923,west_south_central,0.17130608745355816,0.7930265790225779,0.0014289797084881394,35.599231,-91.214571
jefferson,ar,119.1,42.4,182.3,97.5,12.1,25.8,36169,west_south_central,0.5611245423775644,0.4091040961525178,0.007998894798646128,34.268785,-91.931515
johnson,ar,108.3,38,62.1,97.2,16.5,23.4,33634,west_south_central,0.017675312199807877,0.9223439000960615,0.013948126801152738,35.570055,-93.45991
lawrence,ar,96.4,49.8,75.6,102.7,15.2,20.4,34740,west_south_central,0.007212533254507833,0.9716819391073012,8.276677505172923e-4,36.041247,-91.107075
logan,ar,90,36.9,124.8,87,14.3,18.7,34090,west_south_central,0.017369500797811716,0.9309778892181445,0.021837246409847275,35.215272,-93.716306
lonoke,ar,115,42.2,159.3,91.9,18.6,12.6,55648,west_south_central,0.0589374149468988,0.8924087038258113,0.007533775726371021,34.75427,-91.888668
madison,ar,87,38.9,96.8,67.8,21.4,20.2,36358,west_south_central,0.0069792525854958445,0.9486073218704397,0.004187551551297506,36.010965,-93.724563
marion,ar,118.7,31.5,132.1,82.7,28.5,19,34217,west_south_central,0.003596683735674226,0.9661058278468666,0.0032918800292611556,36.268347,-92.68422
miller,ar,104.5,47.6,97.3,81.2,12.1,21.4,40005,west_south_central,0.2517061329180598,0.7118123940823524,0.0013053634406632161,33.312147,-93.891561
mississippi,ar,91.6,60,92.3,73.6,12.2,25.6,34285,west_south_central,0.3485146722776533,0.6111676734767755,0.002058870110183488,35.763902,-90.054166
pike,ar,89.3,39,114.2,87.8,26.3,21.9,35592,west_south_central,0.030316783153308522,0.8909866569846601,0.006989198511391486,34.163498,-93.656342
poinsett,ar,99.7,49.1,85.3,114,12,24.7,34113,west_south_central,0.060005801665906924,0.8933736687248767,0.0011603331813849404,35.574032,-90.66294
polk,ar,93.6,38.7,74.6,67.1,14.8,24.4,31818,west_south_central,0.0037949728930507637,0.9259733859043864,0.0038442582552981764,34.485843,-94.228069
pope,ar,106.3,43.8,134.2,86.3,17,20,39704,west_south_central,0.029917441805188013,0.9115787472071244,0.010109813491371798,35.447633,-93.03416
pulaski,ar,129.6,38.8,173.7,68,20.4,17.3,46526,west_south_central,0.359032276177496,0.5786307509328596,0.021487675022842937,34.769932,-92.311799
randolph,ar,99.1,48.3,78.1,83.9,16.9,22.6,33148,west_south_central,0.010464058234758872,0.9657074613284804,4.5495905368516835e-4,36.341483,-91.027717
saline,ar,118.7,37.2,133.6,73.9,18.7,10.3,54921,west_south_central,0.060470508838263666,0.9011654567950371,0.010244252749249418,34.646618,-92.676573
sebastian,ar,111.6,42.8,114.6,78.2,18.5,22.1,41685,west_south_central,0.0659358780064546,0.7961853460122025,0.04362745482956553,35.199717,-94.274141
sharp,ar,126.8,47.8,97.9,89.3,18.9,22.8,31224,west_south_central,0.0032301638574029484,0.9569507253186116,0.005696834439419745,36.161157,-91.479864
union,ar,121,46,177.3,89,14.6,21,38132,west_south_central,0.3297218227797888,0.6462041949719839,0.004958595725690485,33.171363,-92.597288
van buren,ar,127.1,36.8,108.9,65.1,16.3,18.9,35111,west_south_central,0.005387165522140658,0.9561330807482832,0.0023679848448969927,35.580651,-92.515703
washington,ar,119.4,39.5,125.3,67.1,23.2,20.9,43302,west_south_central,0.03448824626017369,0.7830446051016232,0.0239530759787205,35.979067,-94.215579
white,ar,107,52.3,145.3,91.2,18.3,17.2,43363,west_south_central,0.04258909201628966,0.9152151021909849,0.007269451809750961,35.256274,-91.745551
yell,ar,102.6,48.5,121.2,88.1,19.2,19.7,34679,west_south_central,0.02716890771781175,0.8154356235034076,0.014183090808620373,35.002597,-93.411249
apache,az,56.4,22.4,72.6,22.9,4.5,38.7,30252,mountain,0.004989909601083681,0.2254029248334393,0.003580018245652835,35.395616,-109.488846
cochise,az,90.1,38.1,62.9,46.9,15.9,18.8,45294,mountain,0.03960148856659151,0.8280424725184705,0.017553851314978507,31.879565,-109.751141
coconino,az,98.5,28,83.4,36.7,21.7,23.2,48732,mountain,0.015471085873218217,0.6325689535287983,0.017600533086104996,35.838729,-111.770512
gila,az,81.8,32,54.5,54.3,18,22.6,39868,mountain,0.006243065871866714,0.7862502115496719,0.007860245585663514,33.799752,-110.811737
graham,az,118.5,47.4,56.9,45.5,14,21.6,43497,mountain,0.01974473074155986,0.7887233872471955,0.007061206000692798,32.932716,-109.887438
la paz,az,69.3,32.3,73,54.4,9.7,23.2,33994,mountain,0.003792356185973207,0.7522655634357762,0.007289204097714736,33.729264,-113.981338
maricopa,az,118.9,35.2,91.2,52.2,19.3,17.6,52066,mountain,0.052846131965154385,0.7860981976735512,0.038418030455303336,33.348834,-112.491233
mohave,az,110.8,45.1,83.8,76.6,14.3,21.3,38560,mountain,0.010312872920851156,0.8957221220945936,0.012527685152900618,35.70406,-113.757909
navajo,az,83.7,29.4,78.8,39.6,11.9,31.8,37182,mountain,0.008363444815126284,0.47698435435130165,0.0060900664454897465,35.399539,-110.321403
pima,az,107.1,34.8,76,50.9,22.1,19.3,43926,mountain,0.035219437517566364,0.7731671679932386,0.027206185751959957,32.097379,-111.789949
pinal,az,86.7,30.2,78,45.5,14.7,16.7,49887,mountain,0.04583203388295892,0.7997630808543174,0.01754006498928582,32.904309,-111.344714
santa cruz,az,70.8,35.7,54.5,36.1,9.5,22.7,35753,mountain,0.004167830365007412,0.8504737147399403,0.00766966721808065,31.526001,-110.846571
yavapai,az,118.1,31.7,85.5,51.9,17.4,16.4,40486,mountain,0.005302260895025299,0.9197661332381762,0.008573284656839871,34.599881,-112.553864
yuma,az,98.6,31.2,60.8,48,8,19.2,40498,mountain,0.020807508411545952,0.7279135430808886,0.012897703795525647,32.769404,-113.905564
alameda,ca,121.4,36.5,121.6,46,16.6,13,72128,pacific,0.1134376224522915,0.4385531675779661,0.2819444349268666,37.650547,-121.917885
amador,ca,149.8,38,114,58.7,27.2,14.3,52357,pacific,0.024294564835105375,0.8667857046235424,0.014798582366149934,38.44639,-120.651116
butte,ca,141.5,40.8,128.9,61.4,27.2,21.4,42395,pacific,0.015035041563001112,0.8312823559365187,0.043108492609781265,39.666929,-121.600672
calaveras,ca,101.5,37.8,110.6,52.3,38.9,15,52598,pacific,0.00576060017415768,0.9222318976488714,0.01000290262799473,38.204606,-120.554132
colusa,ca,113.5,35.8,98.3,56,16.7,13,48897,pacific,0.010392771873975937,0.8764102804175834,0.016197743551331866,39.177573,-122.237028
contra costa,ca,129.5,41.5,136.9,49.2,29.4,10.8,78909,pacific,0.08757993546494573,0.5973842994787554,0.1551124850508834,37.923419,-121.951212
del norte,ca,112.7,35.9,99.8,78.4,11.8,23.7,38663,pacific,0.023237295497321557,0.7776531055450991,0.024323150427102938,41.744957,-123.957814
el dorado,ca,135.8,38.2,119.3,50,35.2,11.4,63002,pacific,0.009748633879781421,0.8697540983606558,0.04150819672131147,38.778738,-120.524647
fresno,ca,114.1,36.1,109.5,50.8,15.9,28.6,43741,pacific,0.05028655675069563,0.6158052659994185,0.09921300718468375,36.758179,-119.64932
glenn,ca,133,39.8,109,61.2,20.2,19.1,42129,pacific,0.006970260223048327,0.83975550471833,0.024485273091221046,39.598405,-122.392207
humboldt,ca,111,42.6,111.7,56.4,28.5,21.5,40882,pacific,0.011858087615215044,0.812075572191564,0.027659007856075512,40.70501,-123.915819
imperial,ca,100.7,33.7,127.1,44.3,7.9,22.7,40106,pacific,0.027157773465244648,0.6954369795365953,0.014305927620283323,33.039506,-115.36532
inyo,ca,141,32.7,137.8,45.7,16,15.7,45784,pacific,0.009822110662446797,0.8186729237149405,0.01216850376514242,36.511127,-117.41079
kern,ca,107.6,36.5,108.9,55.7,15.5,22.7,46688,pacific,0.05539073860056442,0.7434918980830608,0.04600745750496077,35.342849,-118.7299
kings,ca,103.7,37.6,104,48.8,15.6,21.8,45794,pacific,0.06386221308256966,0.6703535847625133,0.0379339948489628,36.075361,-119.815502
lake,ca,109.5,44.8,91.1,73.7,27.7,23.3,36973,pacific,0.02177102191148012,0.7879861414570198,0.013608839503090081,39.099645,-122.753184
lassen,ca,91.6,29.6,94.4,60.9,15.1,19.1,50487,pacific,0.08905932070746596,0.7970261386758491,0.016747534825481296,40.67359,-120.594333
los angeles,ca,116.1,39.4,113.8,39.9,13.2,19,54443,pacific,0.08265886326699748,0.5253431015033576,0.14232265486611273,34.191753,-118.265135
madera,ca,104.1,35.5,110.8,51.8,19,23.4,41223,pacific,0.03326682576320697,0.7899143226008372,0.019919669287847372,37.218031,-119.762648
marin,ca,137.5,35.8,136.7,41.6,46.1,8.7,94347,pacific,0.02342322195575228,0.7901356426252516,0.05665142390055444,38.055183,-122.748859
mariposa,ca,111.6,36,107.2,54.6,28.5,16.4,45251,pacific,0.01280816095211108,0.8808160952111079,0.012694814395012752,37.581522,-119.905517
mendocino,ca,116.7,38.6,110.6,52.2,27.2,20.9,42001,pacific,0.006452424807514101,0.8276836481369195,0.01760688258646135,39.433624,-123.431554
merced,ca,108.5,37.9,104.3,56.9,14.6,24.8,41003,pacific,0.033592326066694086,0.5858053365836355,0.07487896272089539,37.191857,-120.717669
modoc,ca,118.7,28.1,85.1,43.7,22,20,37055,pacific,0.009077825750027677,0.9023580205911658,0.014391674969556073,41.589848,-120.724967
monterey,ca,115.3,29.4,141,42.6,21.7,17.5,55411,pacific,0.026703796597404468,0.6987663905941641,0.058565647220717755,36.239774,-121.308902
napa,ca,138.5,40.2,134.3,53.3,31.4,9.7,68619,pacific,0.020898574806672204,0.7322596450863851,0.07762226340867615,38.506474,-122.330533
nevada,ca,130.8,31.8,116.7,47.3,30.1,12.8,55246,pacific,0.0050182990500714725,0.9222822615801052,0.012986749662912236,39.30137,-120.768752
orange,ca,123.4,35.8,114.3,44.1,25.7,13.5,73827,pacific,0.016448125621166647,0.630464869703861,0.19220065314884596,33.676913,-117.776146
placer,ca,140.7,36.5,129.9,49.6,35.7,8.3,73643,pacific,0.014769099578758186,0.8322669609872332,0.06709105677454523,39.063427,-120.717652
plumas,ca,107.7,34.2,115.4,44.2,26.5,15.7,47645,pacific,0.0013863709075397248,0.8958088941025915,0.009118054814972805,40.004682,-120.838598
riverside,ca,115.3,39.4,120,47.2,22,17.4,53909,pacific,0.062406084275861355,0.6326860284384989,0.06156353221234033,33.74368,-115.993846
sacramento,ca,132.5,41.9,122.7,56.9,20.6,18.9,52980,pacific,0.09900899073886298,0.5924998310011492,0.15158182924356114,38.449315,-121.344243
san benito,ca,113.2,33.8,157.5,40.2,18.4,12.7,66780,pacific,0.007579542126750616,0.8382629067544056,0.026132194105183373,36.605706,-121.074996
san bernardino,ca,114,43,130.2,49.5,16.8,19.2,52112,pacific,0.08578742463524455,0.6201872643887232,0.06755985748692064,34.841438,-116.178462
san diego,ca,128.3,37.2,115.8,49,26.9,15.3,61365,pacific,0.050387353858600166,0.7100501758799221,0.11569376360902403,33.028203,-116.770207
san francisco,ca,121.6,40.4,105.1,49,19.2,13.8,76933,pacific,0.05363749908853768,0.4814343947066973,0.3385312167022235,37.759715,-122.693976
san joaquin,ca,112.3,39.1,130.6,56.8,14.8,19.8,51219,pacific,0.06976750692443276,0.5637691296197856,0.14899560753154464,37.934777,-121.271447
san luis obispo,ca,138.2,35,114.2,46.9,44.2,15,57743,pacific,0.019793311324816994,0.8545464331850151,0.03722907994832783,35.387418,-120.452197
san mateo,ca,135.9,36.6,129.7,45.3,24.1,8,91061,pacific,0.024555215780631415,0.5358887999703212,0.27019084515626407,37.43621,-122.355663
santa barbara,ca,129.5,34.5,111,42.1,33.4,16.2,60803,pacific,0.020205054677454228,0.7411645558096929,0.05312304418575541,35.014583,-119.884478
santa clara,ca,119.6,36.6,131.9,41.1,20.7,10.5,91843,pacific,0.025465025972703198,0.46883222567393223,0.34378129880491615,37.232484,-121.696278
santa cruz,ca,136,31.3,141.2,37.6,34.2,14.9,65282,pacific,0.008762378613004787,0.7932979245638189,0.044915495089155544,37.021606,-122.009787
shasta,ca,134.3,37.1,122.8,62.5,39,19.7,41236,pacific,0.009814314727609526,0.870087263150847,0.02942062624143549,40.763767,-122.040522
siskiyou,ca,107.9,33.9,109.6,60.5,21,20.4,37108,pacific,0.01623614546120729,0.8554318952093066,0.01591554456352478,41.59265,-122.540374
solano,ca,131.1,40.5,141.4,58.1,21.5,12.9,63398,pacific,0.1413327870836786,0.5288061341353272,0.15233847614968482,38.266919,-121.940007
sonoma,ca,132.3,40.3,112.9,49.5,38.2,12.4,61020,pacific,0.015766127736170487,0.7606594130693324,0.0390155411269326,38.525293,-122.922545
stanislaus,ca,117.9,42.8,104.8,57.4,20.8,21.8,47808,pacific,0.027338986469039376,0.746498517606835,0.054214312774591426,37.559145,-120.997685
sutter,ca,117.8,31.7,99.9,56.3,23,17.2,47903,pacific,0.01950611072678867,0.7098190889461878,0.15049367964278976,39.034523,-121.694842
tehama,ca,117.2,40.6,119.4,65.2,31.7,17.9,43459,pacific,0.00625247956835674,0.8653495199555661,0.01401253669761168,40.125736,-122.233885
trinity,ca,118.4,29.7,92.1,66.6,30.3,22.1,35708,pacific,0.010925644916540212,0.8628983308042488,0.015553869499241275,40.650694,-123.112628
tulare,ca,106,36.8,104.6,47.9,15.4,29.6,39657,pacific,0.015931316083366794,0.7968532304742095,0.03511427938275749,36.220157,-118.800473
tuolumne,ca,132.1,39.6,104.6,58,39.3,14.6,50774,pacific,0.018992276845388387,0.8840412891727313,0.013107084509134115,38.027601,-119.954753
ventura,ca,131.8,36.6,116.4,41.5,27.3,12,76513,pacific,0.017609801805221145,0.7943542361020507,0.07086738385264081,34.325358,-119.147678
yolo,ca,132.9,34,109.8,42.3,25.3,17.8,55011,pacific,0.024614753590148374,0.6708986936676984,0.13875070944479684,38.686646,-121.90162
yuba,ca,112.6,39.5,112.3,68.1,23.9,20.6,41824,pacific,0.03058310892187775,0.7201510210157381,0.069353289037444,39.269008,-121.351262
adams,co,115.9,40.1,112.5,52.6,16.4,13.2,54876,mountain,0.032028618037947654,0.8277771643224571,0.03745596143148526,39.87364,-104.337801
arapahoe,co,133.3,34.2,118.7,47.5,19.8,12.3,61092,mountain,0.10379362375904208,0.7245105784984814,0.05591029485095553,39.650038,-104.335247
archuleta,co,131.6,30.4,111.7,31.7,29.4,15.1,44417,mountain,0.009631728045325779,0.8567381626871712,0.007203561311210037,37.193596,-107.048329
boulder,co,135.6,30.1,121.3,35.5,23.8,13.5,71405,mountain,0.009281407563359781,0.8856131812549967,0.044782632237762014,40.093574,-105.358571
broomfield,co,116.4,27.8,121.8,48.4,26.6,6.4,79117,mountain,0.009767970664061874,0.8651539656359589,0.06272318211660716,39.955369,-105.047567
chaffee,co,123.6,24.7,106.8,36.9,41.4,13,48012,mountain,0.012805965310423084,0.9585021883611606,0.003620251796617496,38.746903,-106.194067
delta,co,97.1,28.1,105,46.3,17.8,15.1,41730,mountain,0.0071804374441613444,0.9435491876509712,0.00896727441183283,38.861374,-107.862877
denver,co,131.7,37,129.2,48.5,16.8,18.7,51156,mountain,0.09770044760840822,0.7695442354399121,0.03496290533888736,39.775594,-104.867427
douglas,co,133.2,33.1,122.4,37.1,29.8,3.6,105192,mountain,0.011243070538890905,0.902465647057326,0.04148766221780943,39.329724,-104.929561
eagle,co,115.6,26.6,118.4,28.3,24.8,9.5,78517,mountain,0.007864786176125836,0.885185465270163,0.008337429576133398,39.627826,-106.695299
el paso,co,122.6,35.6,141.1,50.3,28.4,11.4,57072,mountain,0.06128649625434663,0.8018855301869745,0.02683069466347751,38.832089,-104.525585
elbert,co,117.7,34.2,110.4,47.5,15.6,6.7,80972,mountain,0.0073890608875129,0.9473684210526315,0.0077192982456140355,39.28656,-104.135891
fremont,co,121,45.1,128,56.4,27.3,19.7,41412,mountain,0.050389665848190456,0.8971282160777196,0.008092238710366179,38.472972,-105.439657
garfield,co,122.9,27,99.3,43.2,33.6,12.4,57364,mountain,0.008087659796504044,0.8672058439864336,0.007444125576137056,39.599307,-107.903956
grand,co,92.5,23,73,47.5,20.3,11,57312,mountain,0.007936507936507936,0.9230503795721187,0.017115251897860593,40.102615,-106.118358
jefferson,co,128.4,33.3,136.7,43.7,25.3,9.1,68161,mountain,0.011545963744385391,0.9082586209981925,0.02669064619459208,39.585248,-105.251574
la plata,co,122.2,29.2,146.1,34.4,28.6,12.4,58675,mountain,0.004481979479201393,0.8874319368818757,0.0055561729081009,37.286558,-107.843336
larimer,co,129.3,30.6,108.5,39.7,17.2,13.8,59337,mountain,0.00901213917620869,0.9101953091369747,0.02011511923942588,40.666417,-105.461144
logan,co,112.9,40.5,94.6,36.4,26.1,16.9,43561,mountain,0.021955905223675784,0.9201353947488793,0.009651450004574147,40.724669,-103.110096
mesa,co,108.8,33.5,112.2,56.1,19.5,15.4,48108,mountain,0.007005655818473874,0.9369760943806271,0.006303740399281887,39.01829,-108.46644
montezuma,co,121.4,30.9,130,40.2,19.3,19.1,43655,mountain,0.003999077136045528,0.8298854110589864,0.0020379912327924323,37.338425,-108.596662
montrose,co,103.7,29.7,91.4,49.6,22.1,15.1,43946,mountain,0.005701561200019576,0.9278128517594088,0.007903880976851171,38.402156,-108.269451
morgan,co,109.8,38.8,98.9,49.5,17,13.5,46332,mountain,0.030931843891402716,0.9069216628959276,0.00505514705882353,40.262744,-103.809822
otero,co,101.4,49.7,107.6,40.5,24.6,22.5,36811,mountain,0.00482646420824295,0.9048806941431671,0.009978308026030369,37.902702,-103.716446
park,co,105.2,39.1,122.3,35.8,30.4,10.3,57510,mountain,0.0010948905109489052,0.9527372262773722,0.011374695863746958,39.119303,-105.717175
pueblo,co,122.9,40.4,110.9,49.8,16.4,20.1,41352,mountain,0.022354740438337916,0.7813058868510958,0.007825700859655399,38.17342,-104.512846
rio grande,co,104,49.2,124.3,29.2,23.1,17.9,39834,mountain,0.007571195044308698,0.9121569302245548,0.0036995612148326596,37.582523,-106.38321
routt,co,123.5,31.4,128.7,31.5,24.5,8.9,63763,mountain,0.007464553794829024,0.9477064220183486,0.010967472894078399,40.485068,-106.991193
summit,co,81.2,16.7,79.7,14.8,21.1,9.3,63236,mountain,0.01021558645666063,0.8823328436229457,0.007823977587208309,39.634171,-106.116379
teller,co,150.8,34.5,120.9,41.1,33.9,8.4,62725,mountain,0.009202453987730062,0.9472989093387867,0.009032038173142468,38.882172,-105.161826
weld,co,115.3,35.3,97.1,45.7,18.2,13.2,58404,mountain,0.011180839012461115,0.8753097297394494,0.013130023555643465,40.554828,-104.392533
fairfield,ct,145.1,38.1,141.3,54.9,21.6,9.6,81816,new_england,0.11393367586431015,0.7376898062696338,0.05070208938231852,41.22496,-73.371205
hartford,ct,133.4,41.4,135.7,62,21.5,12.1,63491,new_england,0.13446369818432308,0.7239463257187961,0.04889812314181438,41.806422,-72.732844
litchfield,ct,125.7,40.2,140.4,62.5,25.3,7.2,70519,new_england,0.01703566470959971,0.9324946932338056,0.01896392479245548,41.792495,-73.245324
middlesex,ct,148.2,38.3,125.9,65.7,27.1,7.3,75335,new_england,0.04995195757671585,0.8892591736703195,0.029360610077962514,41.435381,-72.523119
new haven,ct,136.4,42,126.9,70.2,18.2,12.8,58672,new_england,0.12874009436921083,0.7485241742694053,0.03919737383171056,41.348823,-72.89986
new london,ct,137.6,38.8,109.3,68.7,24,9.4,62638,new_england,0.05707395793892653,0.813897578602596,0.04147658556131058,41.466779,-72.106497
tolland,ct,137.7,39.2,117.9,62.7,25.4,6.4,73660,new_england,0.03006150742637897,0.8914093968580451,0.04167078693906612,41.855009,-72.336489
windham,ct,127.4,42.2,84.6,65,18.8,13,55948,new_england,0.022993218196416063,0.898033789439519,0.013281743794735134,41.830029,-71.987488
district of columbia,dc,143,44,169.1,59,8.3,18.8,66326,south_atlantic,0.48345015014969445,0.4036894792028637,0.036472946499971924,38.904774,-77.016291
kent,de,129,40.7,169.4,79.2,25,13.5,53811,south_atlantic,0.24550077562779196,0.6704106745045896,0.02002052789344157,39.095954,-75.504614
new castle,de,132.4,37.5,152.3,67.3,28.9,11.9,63033,south_atlantic,0.24366436774112904,0.6508241892618981,0.05177745531225713,39.578327,-75.638982
sussex,de,125.4,38.3,137.9,74.2,35.4,14.8,50207,south_atlantic,0.12511835776237548,0.8180462447449154,0.011428625534977086,38.683297,-75.339542
alachua,fl,135,39.8,107.9,67.8,24.8,25.7,39614,south_atlantic,0.19855328336860484,0.6964038646665186,0.05809471472946165,29.674755,-82.357701
baker,fl,106.7,36.5,127.9,99.5,13.8,18.8,46505,south_atlantic,0.1390597539543058,0.836006151142355,0.006517281780902167,30.331071,-82.284587
bay,fl,127.9,37.1,157.6,88.4,21.4,18,45249,south_atlantic,0.10757957176737067,0.821328653685503,0.022532952831616777,30.237647,-85.632623
bradford,fl,103.1,37.7,103.6,82.1,23.2,21.8,40668,south_atlantic,0.19369218767413351,0.7813440320962889,0.006166648092425424,29.94996,-82.168778
brevard,fl,115.8,38.3,102.1,74.2,28.2,15,46677,south_atlantic,0.10220748622662003,0.8313913566132735,0.023674696753780658,28.300314,-80.701205
broward,fl,121.3,40,117.7,53.5,18.2,15.2,50343,south_atlantic,0.2818015001770595,0.6189389305604739,0.035183337089141425,26.151856,-80.455886
charlotte,fl,103.3,33.9,93.5,62.3,25.4,14.4,43611,south_atlantic,0.057462185072093,0.9006319189823275,0.011571426887209536,26.899846,-81.950308
citrus,fl,112.8,39,111,79.7,24.4,17.3,39285,south_atlantic,0.030195154250888197,0.9329953792371826,0.016218948687461286,28.84757,-82.520107
clay,fl,120.7,39.7,117.1,79.2,22.4,9.9,57991,south_atlantic,0.0986543280125383,0.816776975831811,0.030287602447765367,29.983068,-81.857884
collier,fl,90.5,25.7,86.8,43.3,22,13.4,55584,south_atlantic,0.06978026395892441,0.8790417992395961,0.012864838787488944,26.099239,-81.380973
columbia,fl,108.9,39.6,111.9,88.2,21.9,18.8,41722,south_atlantic,0.17760051614416844,0.7728085867620751,0.008519311416757089,30.224240000000002,-82.621539
desoto,fl,101.4,33.1,99.8,57.7,25.4,33.9,33198,south_atlantic,0.1306426823020436,0.8265782432970912,0.002305459099447828,27.18632,-81.809301
dixie,fl,114.5,41.9,68.8,100,20.5,27.1,31649,south_atlantic,0.07585177816463566,0.8764610793334991,0.004041283262869933,29.581242,-83.187032
duval,fl,132.8,44,145.7,78.1,20.3,17.1,47876,south_atlantic,0.2941491192043424,0.6116396008391701,0.04406975324401425,30.335441,-81.648009
escambia,fl,122.6,38.8,109.8,78.4,18.9,17.6,42742,south_atlantic,0.21749242507445715,0.6864077732626125,0.029169116269454152,30.614396,-87.341364
flagler,fl,121.8,36.4,93.3,67.7,25.7,14.5,47872,south_atlantic,0.10937940281974795,0.8176686067413547,0.023552960152355782,29.47115,-81.292995
gadsden,fl,97.3,33.6,112.8,66.4,11.2,25.3,34348,south_atlantic,0.5572335492817369,0.408749160401274,0.004528416354299829,30.579469,-84.613599
gilchrist,fl,114.7,28,61.9,74.3,22.9,21.9,39854,south_atlantic,0.06217342805142958,0.9188046732812776,8.806434568191158e-4,29.725823,-82.800367
hardee,fl,103.2,54.3,74.9,69,16.7,28.8,34884,south_atlantic,0.07951798403047396,0.8225771005787121,0.0058237491758845504,27.492698,-81.809926
hendry,fl,89,34.8,88.6,65.2,12.6,25.1,37085,south_atlantic,0.11929330831769856,0.7615697310819262,0.009380863039399626,26.553489,-81.165901
hernando,fl,105.7,34.5,101.2,74.9,24.8,15.6,39280,south_atlantic,0.05260835873911888,0.8960502723462502,0.01105787994140172,28.556171,-82.468489
highlands,fl,105.4,36.5,74,73.3,26.8,20.1,34054,south_atlantic,0.10014970362727843,0.8254536626813134,0.014687139649207986,27.343404,-81.340971
hillsborough,fl,121.8,42.7,129.5,69.7,20.8,16.8,49510,south_atlantic,0.16585050250971423,0.7105541022735947,0.03796504917770107,27.906229,-82.346921
indian river,fl,103.1,35.7,98.2,67,32.2,14.1,44326,south_atlantic,0.09138445872493842,0.8565246109176976,0.01221945480315394,27.696391,-80.57409
jackson,fl,61.6,34.3,67.4,48.4,10.2,26.3,36332,south_atlantic,0.2671332690215718,0.6930481722460541,0.0069374602327538434,30.795391,-85.21546
lake,fl,117.7,43.6,129.5,76,22.3,14.5,44244,south_atlantic,0.09916054234128709,0.8346778510387738,0.01823128223536302,28.761471,-81.711299
lee,fl,109.8,32.3,101.2,59.2,22.1,16.3,46605,south_atlantic,0.08628427096641555,0.8491122956958457,0.015620365067477274,26.57569,-81.915453
leon,fl,117,32.9,117.4,54.8,15.4,21.7,46975,south_atlantic,0.31212340407601447,0.6213815188842227,0.03349157970139191,30.458039,-84.277881
levy,fl,114.2,47.3,80.1,103.5,22.3,23.6,33193,south_atlantic,0.08950562873045055,0.8771501246631577,0.003979147253632861,29.282206,-82.788613
manatee,fl,110.2,34.3,83.8,59,25.7,16,48066,south_atlantic,0.08879746244457586,0.8558279170710589,0.018844914278276566,27.477523,-82.35754
marion,fl,127.4,43.1,132.1,82,20.5,19.6,38783,south_atlantic,0.1272459092498406,0.8178327030830843,0.01479986249085476,29.210202,-82.056676
martin,fl,128.2,29.8,116.3,59.6,24.6,13.5,51159,south_atlantic,0.05588181676128965,0.8708396270639096,0.01169982811604771,27.081621,-80.398471
miami-dade,fl,105,42.8,125.9,44.4,8.4,21,41840,south_atlantic,0.18354102096592953,0.7564211020943411,0.015765919611712576,25.608968,-80.498667
monroe,fl,107.7,37.1,72.7,54.6,28.1,16.8,50380,south_atlantic,0.07145819831497084,0.889449125081011,0.011302657161373946,25.04678,-81.185692
nassau,fl,137,37.6,109.4,81.2,31.6,13.4,56987,south_atlantic,0.06410405897366137,0.9037791337919597,0.008887506963607862,30.610578,-81.771418
okaloosa,fl,113.3,37.8,91.7,71.8,27.1,13.4,54265,south_atlantic,0.09612457737055537,0.7886495265528759,0.02929039111737607,30.66503,-86.592175
okeechobee,fl,110.3,50.9,73.8,93.3,15.7,25.7,35954,south_atlantic,0.08802638254693049,0.8690005073566718,0.010350076103500762,27.386292,-80.888576
orange,fl,114.3,42.3,122.1,57.6,17.3,18.2,46675,south_atlantic,0.20949003029325944,0.642869141876749,0.05162592402402761,28.514423,-81.323478
osceola,fl,105.1,37,114,54.7,16.9,20.7,41592,south_atlantic,0.11354267506939948,0.7525948673235843,0.0263141023586206,28.062665,-81.1495
palm beach,fl,118.9,32.9,113.2,54.1,21.7,15,51768,south_atlantic,0.18273795948831711,0.7453110154229791,0.025489059214717065,26.647568,-80.436508
pasco,fl,112.6,40.5,111.1,75.9,25.2,13.5,45454,south_atlantic,0.05132804980442752,0.8846409043435522,0.02380045462923143,28.30674,-82.438868
pinellas,fl,120.4,35.8,93.3,68.9,21.2,15.1,43773,south_atlantic,0.10241520390655932,0.8248104407651339,0.03204945356703436,27.902676,-82.739554
polk,fl,120.9,43,124.9,74.4,28.5,19.3,42447,south_atlantic,0.15124096153152547,0.785480742240364,0.017030191738632034,27.948866,-81.697681
putnam,fl,116.7,41.7,110.6,97.2,19.9,26.9,32852,south_atlantic,0.166048904624917,0.7879785350741314,0.005864129232131003,29.608635,-81.744304
santa rosa,fl,112.2,32.8,103.4,74.9,22.9,13.8,54876,south_atlantic,0.05742420822071591,0.8600940800351428,0.01868788246706894,30.692904,-87.018449
sarasota,fl,124.9,32.9,94.9,57.6,30.7,13,48717,south_atlantic,0.04544346764285409,0.9122411189640487,0.015193047428337408,27.182478,-82.364974
seminole,fl,117,37.4,107.2,54.2,21.6,12.9,55195,south_atlantic,0.11352773168060872,0.7915692981564896,0.041311342161411586,28.716977,-81.236306
st. johns,fl,127.1,30.8,114.2,65.2,31,9.6,66312,south_atlantic,0.05206949927185133,0.892623258625585,0.024376952033778772,29.912184,-81.409887
st. lucie,fl,104.7,34.6,98.7,64.5,18.6,19,42825,south_atlantic,0.19511762458381093,0.7373778723868785,0.018196332077943345,27.380866,-80.445603
sumter,fl,110.6,32.1,117.5,65.3,21.6,12,52670,south_atlantic,0.08290415445157541,0.8866087385222161,0.0034950567396490858,28.704822,-82.080995
suwannee,fl,103,38.5,92.6,87.2,20.6,24.6,35666,south_atlantic,0.13861590268710056,0.8295878862850204,0.002794767828098871,30.195612,-82.991492
union,fl,195.5,118.8,237.4,203.7,33,23.8,40841,south_atlantic,0.2229038854805726,0.7409459726894914,0.004749653671086484,30.043839,-82.371442
volusia,fl,110.7,37,79.8,70.8,24.7,16.6,40908,south_atlantic,0.10553517382333019,0.8338057892820366,0.01713566402900514,29.063452,-81.148572
wakulla,fl,127.8,42.7,105.7,95.9,15,15.9,47430,south_atlantic,0.1517212748291499,0.8210065785271763,0.004087628536756722,30.147773,-84.375607
walton,fl,109,35.9,74.9,74.3,21.6,19.3,45357,south_atlantic,0.04984722402808477,0.8694090495384216,0.011978286308672474,30.618469,-86.171516
washington,fl,72.6,33.6,70.2,74.7,19.3,23.4,35671,south_atlantic,0.15726641491046411,0.8007065416006822,0.0013805985300686238,30.610592,-85.665329
baldwin,ga,97.9,46.9,127.6,73.5,11,31.8,35815,south_atlantic,0.41667394341599723,0.5430055885434859,0.015324834090115263,33.069276,-83.249591
banks,ga,81.2,57.9,105.6,65.2,39.1,17.4,42495,south_atlantic,0.024487347294938917,0.9351548865619547,0.012761780104712041,34.354134,-83.497372
barrow,ga,105,35,115.9,89.6,26.2,14.4,54668,south_atlantic,0.11270793564221435,0.798677392964276,0.0348786473956913,33.993196,-83.712755
bartow,ga,124.2,52.3,115.5,91.3,23.1,19.1,46330,south_atlantic,0.10950344313433129,0.8339055541386279,0.008318455592395677,34.237855,-84.840499
bibb,ga,124.7,47.8,167.8,79.4,10.8,29.2,36816,south_atlantic,0.538879593239685,0.4199060923252526,0.018457268116787943,32.806498,-83.69742
brantley,ga,73.5,42.2,76.6,87.8,20.1,22.5,36758,south_atlantic,0.028582296364723144,0.9449546269629951,0.012606640221702983,31.196876,-81.981895
bryan,ga,111.5,52.4,111.8,84.3,28.2,10.1,66066,south_atlantic,0.1519763077644851,0.7839549612948628,0.01803307529908515,32.013224,-81.442472
bulloch,ga,113.2,31.9,73.7,78.6,18.2,30.6,36484,south_atlantic,0.2852298984153894,0.6603546574424741,0.01484803325084426,32.396814,-81.743182
burke,ga,120.3,56.9,123.7,85.9,13.1,32,32675,south_atlantic,0.49207461248795864,0.4799457045275418,0.0026272002802346967,33.061154,-82.000781
butts,ga,104.8,39,161.4,95.7,18.6,22,43330,south_atlantic,0.2830188679245283,0.6930874398398569,0.005707227735423144,33.287851,-83.95717
camden,ga,119,42.5,128.7,67.4,19.1,15.6,49098,south_atlantic,0.1822928664670199,0.7451240113645089,0.013169008676956154,30.92249,-81.636389
carroll,ga,115.8,48.9,117.5,83.9,27.9,17.9,45493,south_atlantic,0.18376173564471324,0.7537360666690108,0.008544604240655437,33.582798,-85.079763
catoosa,ga,91.5,29.7,89.5,65.6,20.5,16,50847,south_atlantic,0.025653134282885216,0.9321349683905857,0.014502246934267651,34.903657,-85.138247
chatham,ga,130,42,136.1,65.2,24,20.3,45254,south_atlantic,0.3980708601515146,0.5332203401825111,0.025724223584902322,31.974022,-81.092425
chattooga,ga,86,52.5,132.1,101.5,17.5,28.3,34440,south_atlantic,0.10724267348079533,0.8673640501477282,0.006108759881817456,34.475015,-85.345291
cherokee,ga,126.9,34.8,138.6,73.2,46,11,67686,south_atlantic,0.06475334845140897,0.8674234376422739,0.01736988843553933,34.243929,-84.476203
clarke,ga,129.7,40.5,170.7,61.8,21.1,37.2,32864,south_atlantic,0.2724173816137729,0.6388800117997001,0.04370805575358293,33.951168,-83.367332
clayton,ga,128.2,44.6,156.3,65.1,10.2,25.4,40606,south_atlantic,0.6808661000706703,0.1959344208917782,0.051892743895896314,33.541901,-84.357654
cobb,ga,132.8,39,142.4,60.3,36.4,13.8,62866,south_atlantic,0.2673629988412769,0.6068112050171063,0.050341301613974966,33.941463,-84.576673
coffee,ga,99.5,41.5,108.9,79.5,14.9,28.2,33615,south_atlantic,0.2812136982482227,0.672924120626365,0.007945727429022815,31.549272,-82.849201
colquitt,ga,111,43.2,133,89.5,11.5,25.9,33095,south_atlantic,0.22268597017520977,0.6669057867049258,0.008325724968479631,31.18839,-83.768848
columbia,ga,119.5,35.8,112.1,61.4,23.2,8.3,72531,south_atlantic,0.1662068275388838,0.7515510635864593,0.03999170860018298,33.544121,-82.264062
coweta,ga,111.6,38.3,118.8,65,29.9,13.7,61469,south_atlantic,0.17631705069124423,0.7666580645161291,0.01640552995391705,33.353462,-84.763361
crisp,ga,98.7,46.7,115.2,72.3,15.9,30.7,30481,south_atlantic,0.4308139282771779,0.5370105372707168,0.012792159923680673,31.922932,-83.768104
dawson,ga,121,37.7,98.7,74.1,40.1,15.2,52804,south_atlantic,0.006931426827673394,0.9522211081564148,0.0035311042329656916,34.444298,-84.170636
decatur,ga,109.9,44.8,139.9,70.4,12.6,26.6,34102,south_atlantic,0.41939273781987735,0.5268201343760326,0.0045526306127693945,30.878344,-84.57907
dekalb,ga,136.4,41.4,161.5,53.2,18.1,19.9,49894,south_atlantic,0.5428455785451622,0.34833720586488226,0.05942378940795853,33.771529,-84.226408
dougherty,ga,122.4,47.1,197.6,73.4,11.1,31.3,31575,south_atlantic,0.6852565907761627,0.27852392608799253,0.008415830860212725,31.533374,-84.216254
douglas,ga,117.7,45.7,133.6,81.1,20.1,17.9,51941,south_atlantic,0.4347461365460686,0.49507170078751545,0.016437306104148737,33.701828,-84.767973
early,ga,106.8,45.4,184.2,61.5,24.5,27.4,32357,south_atlantic,0.504675572519084,0.4689885496183206,0.006393129770992366,31.322833,-84.903643
effingham,ga,131.3,50.6,90.6,85.2,29.7,11.8,61062,south_atlantic,0.13098904246938337,0.8265773830838645,0.009131275513858053,32.36731,-81.34134
elbert,ga,103.1,52.2,134.3,73.4,18,23.4,34487,south_atlantic,0.3034443642363618,0.6668557285758482,0.0033515520263999177,34.116793,-82.840095
emanuel,ga,117.2,50.3,93.6,67.6,16.6,34.1,30348,south_atlantic,0.3401839545834617,0.6104387624873476,0.003388637063767988,32.589762,-82.301708
fannin,ga,112.6,40.3,106,73.2,27.9,22.5,35673,south_atlantic,0.0019569471624266144,0.9716450847316485,0.006162301702960403,34.864098,-84.319857
fayette,ga,140.4,31.9,131.2,47.4,36,7.2,81368,south_atlantic,0.2092880953468195,0.7026439563450386,0.04333531211470843,33.413943,-84.494191
floyd,ga,119.8,41.6,143,81.1,18.8,22.2,39381,south_atlantic,0.14534454620110396,0.7668270979947817,0.013711161238682315,34.263163,-85.214279
forsyth,ga,132.2,41.3,132.8,60.6,50.7,7.7,87565,south_atlantic,0.029356213911823432,0.8407484264696503,0.0938133152800467,34.225546,-84.125018
franklin,ga,131.8,56.6,123.8,81.4,28.7,20.9,40114,south_atlantic,0.09460068505498467,0.8600144222102037,0.006850549846764017,34.375436,-83.229175
fulton,ga,135.3,39.7,170.4,54.5,27.7,18.2,55474,south_atlantic,0.44071122650756406,0.45239612061916795,0.0644108844984284,33.790284,-84.466986
gilmer,ga,96.5,38.7,114.6,76.1,30.5,25.1,39323,south_atlantic,0.008564718883823732,0.904268545379196,0.006699820417184694,34.691178,-84.455627
glynn,ga,116.5,40.1,131.9,71.9,18.5,20.3,43533,south_atlantic,0.2543359597206589,0.6694867046706123,0.011376977354973797,31.213242,-81.493698
gordon,ga,117.5,44,95.9,94.7,23.2,18.4,42291,south_atlantic,0.04165552167478022,0.897769218424009,0.010806184133097951,34.503359,-84.875753
grady,ga,100.6,56.3,101.4,74,11.7,25.7,35212,south_atlantic,0.286896003181547,0.6580234639093259,0.005448399284151919,30.874673,-84.234426
greene,ga,146.1,39.2,121.4,69.9,31.2,23.1,42842,south_atlantic,0.3622618687632295,0.5976413667977019,0.00810402177199879,33.578784,-83.166655
gwinnett,ga,129.1,37.8,136.9,51.8,27.5,13.7,59081,south_atlantic,0.2608625529315681,0.5169632664639768,0.11140393620988238,33.961729,-84.023624
habersham,ga,120.3,49,132.3,64.4,32.2,21.2,40530,south_atlantic,0.032773762693257706,0.8717866617875766,0.024197237215259355,34.631021,-83.531116
hall,ga,117.8,40.5,132.6,61.2,40.1,20.8,46986,south_atlantic,0.07475771988954337,0.8305299188374755,0.017670961035688413,34.316889,-83.819681
haralson,ga,94.6,49.5,108.7,94.4,32.2,22.2,39548,south_atlantic,0.04751107545261102,0.919314891687306,0.00816269578260718,33.794233,-85.211026
harris,ga,118.9,39.2,148.5,62,25.4,10.6,60977,south_atlantic,0.15779582929194957,0.791555528612997,0.010244907856450049,32.736004,-84.908988
hart,ga,98.8,45.9,97.5,69,24.3,20.8,40225,south_atlantic,0.1905321733678188,0.773218904302845,0.009992946155654832,34.350898,-82.964248
henry,ga,129.3,42,176.6,60.3,24.2,11.6,60087,south_atlantic,0.40251481292985514,0.5176144295913079,0.032277946127160076,33.452986,-84.154184
houston,ga,113.5,48.5,118.3,73.2,16.7,15.4,52297,south_atlantic,0.2955269316132147,0.6197321925477917,0.028584455902961707,32.459007,-83.666243
jackson,ga,131.7,48.5,130.9,78.4,33.3,14,52385,south_atlantic,0.06977193349535658,0.8786113212406045,0.018042523056123354,34.133883,-83.566348
jasper,ga,142.8,41.2,127.5,78.7,29.9,19.7,42343,south_atlantic,0.20477488762803037,0.755876501363201,0.005526490310220323,33.316434,-83.68809
jefferson,ga,112.8,56.3,145.5,62.8,16.9,27.5,29152,south_atlantic,0.5407073637429788,0.43207209431516574,0.0020369113017714956,33.054844,-82.418151
lamar,ga,130.1,46.4,165.3,86.5,18.4,19.7,40915,south_atlantic,0.29453146468810115,0.659302006045617,0.007034899697719154,33.076536,-84.139463
laurens,ga,118.2,42.9,121.9,69.5,13.6,29.1,33974,south_atlantic,0.366093468892515,0.6086774611940923,0.011024643320363165,32.463657,-82.922238
lee,ga,116.5,53,160.8,83.2,29.7,11.6,63272,south_atlantic,0.19492688954486168,0.7497082446625936,0.02378664103796252,31.779507,-84.141134
liberty,ga,98.3,47.3,147.5,76.8,12,20,40175,south_atlantic,0.412782060704624,0.46776337393860734,0.02165788362601448,31.807229,-81.456256
lowndes,ga,125.3,40.8,206.4,65.3,19.7,26.3,37138,south_atlantic,0.3640801418813324,0.5796326537779417,0.018613145094733885,30.833857,-83.267708
lumpkin,ga,116.1,37.2,122.3,72.3,44.9,21.5,42919,south_atlantic,0.019135524538496172,0.9457451598379109,0.003794944362256384,34.572186,-84.00265
madison,ga,119.9,59.5,116.8,90.4,27.7,18.7,43611,south_atlantic,0.0870178407728651,0.8471899019815246,0.01195261265072985,34.127784,-83.209037
mcduffie,ga,121.4,45.5,153.8,69.5,13.5,23.7,37328,south_atlantic,0.40801558586139713,0.5532053066147138,0.0022729381204193337,33.482855,-82.481371
mcintosh,ga,78.7,30.8,121.6,55,24.5,23.1,36346,south_atlantic,0.35133778064701243,0.6177462161968295,0.0017932716447887527,31.483806,-81.375566
meriwether,ga,126.2,65.8,129,66.8,16.1,27.2,34962,south_atlantic,0.3993394668553904,0.5692852087756546,0.006369426751592357,33.040656,-84.688312
monroe,ga,109.4,38.5,160.9,72.7,12.7,13.9,54793,south_atlantic,0.23898091998225116,0.73217719272297,0.009133264310013312,33.013897,-83.918682
morgan,ga,135.9,52.6,145.6,65.5,33,17.1,48337,south_atlantic,0.23624811904363818,0.7417377250181129,3.901242824499805e-4,33.590825,-83.492382
murray,ga,97.7,36.3,82,103.1,19.9,21.9,40343,south_atlantic,0.009832816708166065,0.9671985365110016,0.0041668783982925965,34.788447,-84.748094
muscogee,ga,136.3,48.1,171.6,70.3,21.3,22.9,40414,south_atlantic,0.4505973450222912,0.45315846492563766,0.023878823582272855,32.509961,-84.877041
newton,ga,121.1,45.7,154.6,78.9,28,15,50862,south_atlantic,0.43004398417724565,0.528406848827249,0.01023089286917354,33.555049,-83.850187
oconee,ga,134.3,33.7,192.9,46.8,29.5,8.6,72478,south_atlantic,0.05862393430469619,0.8910495851273131,0.03837928773060363,33.834939,-83.437054
oglethorpe,ga,112.8,50.2,122.1,75.4,21.4,17.6,44026,south_atlantic,0.16713016346740825,0.7866784236586855,0.00535847520857356,33.880648,-83.080703
paulding,ga,123.1,44.2,118.5,77.7,26.7,11.6,60008,south_atlantic,0.18312754455049055,0.7691517052659681,0.00999799773076153,33.920546,-84.867288
peach,ga,136.4,59,128.5,77.9,13.4,21.1,42602,south_atlantic,0.4526331437915784,0.48065559148177056,0.011186680046084661,32.568778,-83.826878
pickens,ga,104,37.5,142.2,82.3,48.6,15.1,53332,south_atlantic,0.011969858628967725,0.9579887970125367,0.005801547079221126,34.46432,-84.465639
pike,ga,94.6,49.5,156.7,75.6,23.7,13.8,52393,south_atlantic,0.10491509275346074,0.8795045676175531,0.0046516841338339965,33.092265,-84.389235
polk,ga,124.2,50.8,143.2,102,17.6,22.5,38730,south_atlantic,0.12284613333979594,0.7675399268109444,0.005840583573661634,34.001784,-85.188153
putnam,ga,114.9,44.9,134,74.4,26.2,19,42934,south_atlantic,0.26172444611693874,0.6762782821393293,0.0043746178089279835,33.321767,-83.372841
rabun,ga,125.9,44.7,135.3,67.1,23.2,19.4,38114,south_atlantic,0.021211378126532614,0.9226949485041687,0.006804806277587052,34.881682,-83.402137
richmond,ga,134.5,34.5,131.4,72.7,13.2,27.7,36069,south_atlantic,0.5575867102245082,0.38549186269350305,0.016840600144972146,33.359635,-82.073549
rockdale,ga,127.5,37.8,158.3,60.7,21,16.8,50646,south_atlantic,0.5058753668535669,0.4364786625403967,0.01982436707053866,33.654235,-84.026608
screven,ga,114.9,64.8,113.1,79.1,18.6,27.9,35087,south_atlantic,0.4166784752727788,0.5597987813518492,0.0021964007368570214,32.750587,-81.611935
spalding,ga,122.1,50.6,173.8,74.3,20,21.1,39068,south_atlantic,0.32967221822954096,0.6297690841483611,0.009624097740836796,33.260869,-84.28416
stephens,ga,101.5,56.4,111.1,76.8,30.2,20.4,36318,south_atlantic,0.12640712945590996,0.8423233270794246,0.004221388367729831,34.553944,-83.293433
sumter,ga,136.6,45.6,158.7,63.1,13.9,36.1,32474,south_atlantic,0.5200836820083682,0.42146765368522693,0.012487930479562278,32.039969,-84.197041
tattnall,ga,124.8,56.1,109.7,100.8,14.2,28.3,35983,south_atlantic,0.2915676959619953,0.6075613618368962,0.002098178939034046,32.045748,-82.058176
thomas,ga,115.6,39.5,144.9,74.5,11.8,20.4,38914,south_atlantic,0.3601618605064811,0.6048869422149098,0.0074482513284567665,30.863682,-83.919313
tift,ga,139.3,43.3,143,71.4,24.4,31.3,33902,south_atlantic,0.29375046078985523,0.6390848099088251,0.013688530633309577,31.457438,-83.526594
toombs,ga,116.4,34.4,163.5,74,14.4,28.3,32311,south_atlantic,0.25257731958762886,0.643078055964654,0.009462444771723122,32.12172,-82.331293
towns,ga,125.5,34.2,178.2,62.4,51.6,18.1,39854,south_atlantic,0.012481778425655976,0.9652879008746356,0.0015488338192419825,34.916652,-83.737279
troup,ga,130.8,45.7,150.9,71.1,13.4,23.8,42044,south_atlantic,0.3466543555414491,0.5995181348645295,0.01790403093170211,33.03351,-85.028337
union,ga,121.2,37,151.9,70.4,35.3,16.9,39677,south_atlantic,0.006490264603095357,0.9700449326010984,0.007624926246993147,34.83401,-83.990756
upson,ga,111.2,51.4,160.8,87.8,18.2,22.3,34709,south_atlantic,0.2821095703568993,0.7007653254527544,0.006706069561263924,32.88127,-84.299344
walker,ga,101.7,31.7,85.5,84.3,17.6,17.3,40512,south_atlantic,0.04327663883304228,0.925274789780315,0.004314456363823137,34.735659,-85.300985
walton,ga,113.1,40.4,138.2,67.9,32.2,14.2,54294,south_atlantic,0.16728807356237704,0.7928084541836314,0.01371288714030834,33.781557,-83.733847
ware,ga,110.9,37.2,119.6,70.6,12.1,27.6,32211,south_atlantic,0.29194583835608756,0.6585741919206077,0.010905217123153262,31.053632,-82.423676
washington,ga,124,48.1,168.8,68.2,12.6,26.5,36807,south_atlantic,0.5295938104448743,0.45193423597678917,0.0038684719535783366,32.969536,-82.795899
wayne,ga,114.1,47.1,106.1,76.2,14.6,25.3,38081,south_atlantic,0.205125641538359,0.74655068986202755,0.001999600079984003,31.551433,-81.916759
white,ga,129.1,40.6,107.7,69.8,52.8,19,41337,south_atlantic,0.024697938877043354,0.9432125088841506,0.0024520255863539446,34.64636,-83.747115
whitfield,ga,96.3,34,102.9,77.6,23.8,19.9,39946,south_atlantic,0.03824298380172306,0.883457304660743,0.014017925192710293,34.805612000000004,-84.967221
worth,ga,111.8,49,142.7,70.8,23.7,23.1,36616,south_atlantic,0.2938345721364589,0.6894892319420621,0.00476462740613684,31.551512,-83.850876
hawaii,hi,125.1,37.1,63.7,44.9,25.5,19.5,47377,pacific,0.006262907889301941,0.33175857083849647,0.22313610078479967,19.602397,-155.522886
honolulu,hi,138.3,46,106.9,48.3,16.4,9.6,72649,pacific,0.023641361338765286,0.2115807614800015,0.4289821975503521,24.053316,-165.802325
kauai,hi,113.6,41.4,110.7,45.2,17.6,11.8,55844,pacific,0.00678524280664897,0.3296378837991682,0.3492838587874572,22.010213,-159.709858
maui,hi,132,45.2,72.1,43.2,36.8,10.7,62277,pacific,0.005207563894223667,0.35275397646131873,0.28384916531245385,20.865832,-156.58774
allamakee,ia,111.8,45.7,130.4,39.9,28.3,13.9,44673,west_north_central,0.008427969430754946,0.9640025712449111,0.004356831654881794,43.284284,-91.378092
appanoose,ia,80.6,57.2,86.3,78.5,22.9,17.2,37683,west_north_central,0.004840501507697191,0.9751626725916521,0.004919853991429932,40.743163,-92.86861
benton,ia,127,34.9,92.3,67.5,32.1,8.8,59179,west_north_central,0.005443234836702955,0.9777216174183515,0.0030715396578538104,42.080186,-92.065691
black hawk,ia,122.1,40.4,132.4,72.5,26,16.7,46281,west_north_central,0.08867573651756876,0.8508820141393304,0.01963544921360327,42.470096,-92.30882
boone,ia,99.6,30.9,118.8,61.3,20.7,11.3,52578,west_north_central,0.01226761576615804,0.969974631782212,0.0013630684184620045,42.036549,-93.931671
bremer,ia,122.9,35.9,105.4,41.6,26.2,6.5,61665,west_north_central,0.010744840449255971,0.9633053562015975,0.008758058630336941,42.774587,-92.318055
buchanan,ia,125.5,37.5,107.3,82.8,19.3,9.2,54383,west_north_central,0.0034235176644001712,0.9756549854975988,0.004945081070800247,42.470778,-91.837839
buena vista,ia,122.6,43.2,142.9,40.9,14.6,12.5,47514,west_north_central,0.029395940327708488,0.7981902665688433,0.08432379554903399,42.735494,-95.151149
butler,ia,98.1,41.3,105.7,45.4,27.7,9.3,53920,west_north_central,0.0030134601218777205,0.9809147525614411,0.005625125560838411,42.731566,-92.790193
calhoun,ia,159.4,50.6,148.4,54.6,33.2,14,47351,west_north_central,0.01660591332523289,0.9619279060348319,0.0026326447954637504,42.385185,-94.640414
carroll,ia,94.8,45.7,120,60.8,26.3,9.5,51328,west_north_central,0.01420578934565799,0.9714911213816589,7.783994162004379e-4,42.036238,-94.860559
cass,ia,94.1,64.2,128.7,73.2,21.2,14.8,45191,west_north_central,0.0026055237102657635,0.9764758430730291,0.005285490955110548,41.331488,-94.927827
cedar,ia,118.3,45.8,144.2,66.5,26.5,7.4,58530,west_north_central,0.005873076295611507,0.9707977595301539,0.008102670074501061,41.772321,-91.132412
cerro gordo,ia,115.5,46.7,124.2,65.8,24.2,11.9,46063,west_north_central,0.01574948617878669,0.9489642749924947,0.011269427060480798,43.081558,-93.260818
chickasaw,ia,97.9,44.1,124,52.9,23.7,10.6,50342,west_north_central,0.00739888194672805,0.9820782637290365,0.003288391976323578,43.060041,-92.317664
clay,ia,143,43.7,141,57.8,21.6,10.7,51399,west_north_central,0.004430149289962374,0.9570336205850225,0.0018206092972448112,43.08258,-95.150919
clayton,ia,118.3,47.5,111.4,60.3,19.6,12,48626,west_north_central,0.006202424584155625,0.9798139272624753,0.004510854243022272,42.844749,-91.341433
clinton,ia,116.3,50.1,106.2,64.1,30.8,13.9,49702,west_north_central,0.02676561327441007,0.9384641040607021,0.006524639372967564,41.898036,-90.531972
crawford,ia,94.2,43.9,150.2,54.8,15.6,13,48555,west_north_central,0.016679302501895376,0.9243016271067825,0.002915961975855835,42.037212,-95.381968
dallas,ia,138.9,31.7,112,61.6,20.4,6,79309,west_north_central,0.011681225504009017,0.9136972615723544,0.03822015011399441,41.684886,-94.039737
delaware,ia,117.6,34.4,97.6,38.4,34,10.1,54587,west_north_central,0.001891659501289768,0.9833190025795356,0.0036113499570077385,42.471211,-91.36735
des moines,ia,132.6,44.9,124.8,86.7,28.1,12.3,42882,west_north_central,0.05581592461484768,0.908560602283492,0.004462282494889565,40.923183,-91.181471
dickinson,ia,136.3,51.8,130.8,59.6,35.3,8.7,58610,west_north_central,0.003637216942391177,0.9751261292971958,0.00299190425906371,43.377985,-95.15083
dubuque,ia,132.4,38.6,131.9,59.4,37.1,12.8,51907,west_north_central,0.02668147241046503,0.9337477557882502,0.012764765097188638,42.468822,-90.882522
emmet,ia,93.3,50.7,145.9,69.8,36.4,14.7,46892,west_north_central,0.014358452138492872,0.9616089613034623,0.003054989816700611,43.378022,-94.67848
fayette,ia,115.7,54.8,118.8,59.9,20.5,13.9,44739,west_north_central,0.013241135795203767,0.9561571281447697,0.007552351527634741,42.862592,-91.844321
floyd,ia,158.9,45.7,127.5,65.7,32.4,12.1,48964,west_north_central,0.01699575106223444,0.9474506373406648,0.016433391652086977,43.059921,-92.789003
greene,ia,164,61.8,124.2,63.7,25.3,12.8,47936,west_north_central,0.0015413409666409777,0.9784212264670263,0.00484421446658593,42.036239,-94.396836
grundy,ia,125.7,43.3,138.8,48.7,30,6.9,61381,west_north_central,0.0033944879980602927,0.9835124868665643,0.00622322799644387,42.401865,-92.791418
hamilton,ia,92.2,45.9,136.4,64.7,24.5,10.1,50867,west_north_central,0.006370263348000262,0.93340776252709,0.02541538057398043,42.383772,-93.706809
hancock,ia,107.8,56.1,137.7,58.8,40.8,10.1,54835,west_north_central,0.00781391968017445,0.9686534617481374,0.0036343812465927674,43.081886,-93.734272
hardin,ia,133.9,46.8,147.6,58.5,21.8,11,51907,west_north_central,0.012410528746247979,0.9590741168321404,0.00681135996305703,42.38388,-93.240402
harrison,ia,110.7,62.4,95.6,86.4,22.8,10.6,53764,west_north_central,4.883153121730032e-4,0.9750959190791768,0.003069410533658877,41.682853,-95.816921
henry,ia,108.3,57.6,97.9,70.4,20.9,14.2,50084,west_north_central,0.021011985356802567,0.9189609347575347,0.02647811042575598,40.987938,-91.544524
iowa,ia,127.8,44,125.2,47.5,43.1,10.1,58028,west_north_central,0.006431459022418228,0.9783167952958471,0.0015925517579321328,41.686323,-92.065524
jackson,ia,134.4,54.4,154,66.1,36.8,11.8,46180,west_north_central,0.0035844129243688874,0.9701981668288187,0.003994060115725332,42.171743,-90.574229
jasper,ia,133.2,48.1,105.2,72.4,14.6,9.8,55492,west_north_central,0.014980253302464932,0.9580280539289119,0.005202233419583277,41.686039,-93.053765
jefferson,ia,106.4,45.7,96.2,49.5,15.3,16.1,41942,west_north_central,0.05724153549994338,0.840165326690069,0.04671045181746122,41.03176,-91.948877
johnson,ia,137.6,39.9,121.9,50.5,29.9,16,53204,west_north_central,0.061025590468008394,0.8326408743292537,0.06152556934214047,41.671551,-91.588085
jones,ia,129.8,50.8,103,57.8,21.2,10.2,54749,west_north_central,0.021043894341096627,0.9559103559396513,0.0050778770567843365,42.12124,-91.131435
keokuk,ia,119.7,50.1,78.8,68.1,26.3,13.3,47626,west_north_central,9.771350400625366e-5,0.9796755911666992,0.0049833887043189366,41.336465,-92.178643
kossuth,ia,148.8,50.9,82,58,39.5,9.8,55972,west_north_central,0.004531722054380665,0.9732037304610535,0.005713910416393012,43.20413,-94.20672
lee,ia,123.4,51,138.5,73.2,26.5,16.2,45307,west_north_central,0.025787558284999432,0.9355737518480609,0.003781417036278858,40.641976,-91.479264
linn,ia,126.6,40.9,102.2,65.7,27.5,9.7,56503,west_north_central,0.04665346026156019,0.8953346539738439,0.02140079605275225,42.078948,-91.598965
mahaska,ia,95,59.7,120.3,79.1,21.5,14,48978,west_north_central,0.014961476437914352,0.9568625694320014,0.010661171833004838,41.335203,-92.640909
marion,ia,126.5,57.8,117.7,57.4,16.9,9.3,56883,west_north_central,0.006325872819833118,0.9593939211374521,0.010723860589812333,41.334451,-93.099437
marshall,ia,100.4,48,114.8,65.8,24.2,13.4,51382,west_north_central,0.012544494906100405,0.834859457469007,0.03088253344789493,42.035849,-92.998771
mills,ia,110.8,45.3,114,73.1,27.7,10,56504,west_north_central,0.007479280371942592,0.9743278754800889,0.0014823798935381712,41.033452,-95.621327
mitchell,ia,103.2,47.5,121.6,48.2,44,10.2,53049,west_north_central,8.366644975364879e-4,0.9787115366737938,0.003718508877939946,43.356412,-92.789031
monona,ia,121.3,52.1,110.6,58.3,33.2,12.5,41461,west_north_central,0.005547542438699656,0.9698213691334738,0.0011095084877399313,42.051666,-95.959923
muscatine,ia,121.9,51.4,139.4,62.8,27,12.7,54025,west_north_central,0.017346154741670353,0.9139444457379683,0.011036345432955365,41.483922,-91.112756
o'brien,ia,101.5,44.5,123.1,53.2,26.1,9.4,57287,west_north_central,0.004838135894699396,0.9449306296691569,0.008609035930273923,43.083753,-95.624878
page,ia,104.4,55,149.5,98,29.7,17.3,47438,west_north_central,0.024369855967078188,0.9431584362139918,0.011574074074074073,40.739144,-95.150175
palo alto,ia,132.4,43.3,94.6,61.1,33.1,10.8,49536,west_north_central,0.018132168214090662,0.9648279628618242,0.005024576734025123,43.082064,-94.678137
plymouth,ia,96.1,54.5,123.4,54.9,44.4,8.3,58113,west_north_central,0.004885471728335736,0.9541886913342944,0.005686368732980939,42.737847,-96.214027
polk,ia,133.2,43.8,117.4,75.3,19.1,12.4,59388,west_north_central,0.06400832826972791,0.8502827996402118,0.04097273493495717,41.685505,-93.573534
pottawattamie,ia,119.4,48.2,100.4,84.6,19.9,13.6,50570,west_north_central,0.014506749071868495,0.9432283954591301,0.006824180776411511,41.336612,-95.542394
poweshiek,ia,112.7,52.6,102.4,43.4,16.6,12,50799,west_north_central,0.01788207496509505,0.9468370744280958,0.02003007195789926,41.686442,-92.531468
scott,ia,124.9,42.9,120.1,72.7,26.7,14.2,54444,west_north_central,0.07745622852334089,0.8590020804600388,0.024112298090184437,41.637098,-90.623243
shelby,ia,129.4,63.7,104,52.4,21,9.4,54740,west_north_central,0.004102478231748158,0.9614869390488948,0.003097789685197589,41.685093,-95.310211
sioux,ia,125.9,35.8,121.1,43.1,31.2,8.2,61817,west_north_central,0.004217093671471072,0.9286271338205135,0.007105513994396464,43.082617,-96.177883
story,ia,127.6,42.8,150.7,56,25.8,21.1,53782,west_north_central,0.022523567496889302,0.875635320665584,0.06878334774447983,42.036241,-93.465045
tama,ia,123.3,37.7,118.1,65.3,21.3,11.5,53844,west_north_central,0.005050794926246915,0.8862997187625552,0.0034437238133501694,42.079812,-92.532543
taylor,ia,143.8,50.8,96.2,57.9,43.8,14.1,45009,west_north_central,0.0019326783701079078,0.9598969238202609,0.007086487357062329,40.737432,-94.696415
union,ia,121.8,44.5,80,74.3,20,13.5,43357,west_north_central,0.009889145864901507,0.9736023606348193,0.00645984528271792,41.02773,-94.242379
van buren,ia,101.4,49.4,56.7,75.4,46.2,16.2,43019,west_north_central,0.005826558265582656,0.9795392953929539,4.065040650406504e-4,40.753229,-91.949987
wapello,ia,125.6,52.4,107.6,78.5,20.7,19.9,40629,west_north_central,0.02357981953351115,0.9080926167640883,0.009165200612905057,41.030585,-92.40945
warren,ia,144.3,44.5,118.2,69.5,18.4,7,66328,west_north_central,0.004006643138883122,0.9678015362258667,0.004774756072244135,41.334373,-93.561359
washington,ia,127.7,39.8,116.3,52.9,27.6,9.3,54480,west_north_central,0.008817544652950485,0.9645941668550757,0.004657472303866154,41.335591,-91.717868
webster,ia,108.6,40.2,132.9,67.6,21,15.9,45202,west_north_central,0.04512820512820513,0.9153036437246963,0.011686909581646424,42.427966,-94.181788
winnebago,ia,108.6,46.4,100.6,61.3,22.8,11.1,50383,west_north_central,0.007466918714555766,0.9534971644612477,0.011247637051039698,43.377568,-93.734195
winneshiek,ia,116.1,41.7,130.1,36,29.2,10.9,53194,west_north_central,0.008562220405021886,0.9680119293857329,0.011736976285535619,43.290675,-91.843707
woodbury,ia,109.5,46.8,131.7,71.5,25.2,16.5,45678,west_north_central,0.030744146993927322,0.8619979302130318,0.027649229687774588,42.389729,-96.044795
wright,ia,125.2,51.6,99.4,56.1,24.9,10.6,49369,west_north_central,0.004887130556202001,0.9325886277247692,0.005662865565122954,42.733119,-93.735146
ada,id,129,35.2,146.8,52.2,30.1,13.6,53420,mountain,0.012336835776588898,0.9131395638307367,0.024950798265844367,43.451118,-116.241086
bannock,id,103.7,34.8,108.8,41,21.4,17.7,42665,mountain,0.006311519417765316,0.9015092763825091,0.012432142217980075,42.668507,-112.224629
benewah,id,107.9,41.9,94.8,79,23.3,16.5,39530,mountain,0.0023158359064843407,0.8694309660344067,0.011358623731804147,47.217551,-116.658826
bingham,id,110,45.3,133.2,38.7,18.1,14.1,47721,mountain,0.0031373588740858578,0.8508649830980314,0.010295839685380349,43.216516,-112.398053
blaine,id,130.5,19.7,111.2,22.6,49.3,9.9,67936,mountain,0.0011667522284967565,0.9201941475708219,0.011340831660988473,43.412325,-113.980397
bonner,id,121,41.7,107.5,54.3,24.8,17,41797,mountain,0.001038923385440576,0.9539249559061587,0.005291260963057817,48.299758,-116.600801
bonneville,id,103.7,34.2,138.1,35.7,28.3,12,50559,mountain,0.004367413225187863,0.8969529035040233,0.008927506445604602,43.387732,-111.614925
canyon,id,106.7,38.5,138.1,56.1,26.1,20.1,42237,mountain,0.0041522423094752,0.8889250525194544,0.008309416023118422,43.625134,-116.709293
cassia,id,113.8,18.8,103.8,34,20,15.3,44160,mountain,0.0018770530267480056,0.9382705515976281,0.004351350198370377,42.283919,-113.60035
clearwater,id,87.5,36,128.4,55.4,24.4,17.8,40068,mountain,0.0021106941838649157,0.9405487804878049,0.006449343339587242,46.673693,-115.656891
elmore,id,103.7,48.2,121.7,72.4,22.7,16.6,42680,mountain,0.026318813929433398,0.8463778109795809,0.029421905528100218,43.3539,-115.469179
fremont,id,94.2,47.4,136.1,40.4,24.7,16.7,44130,mountain,0.0031792803970223326,0.9371898263027295,0.0014733250620347395,44.228805,-111.481909
gem,id,145.3,40.4,135.8,67.1,27.8,18.4,44173,mountain,0,0.937696552542574,0.007654423544769477,44.061691,-116.397227
gooding,id,137.6,40.5,151.6,66.9,23.9,16.3,41310,mountain,7.917133997492907e-4,0.8838820347034374,0.0064656594312858745,42.970902,-114.811515
idaho,id,105.4,34.1,97.2,48.2,15.2,15.8,39434,mountain,0.0019691095932557997,0.933604085902406,0.003076733739462187,45.844198,-115.46746
jefferson,id,92.7,36.3,122.1,33.9,27.1,13.1,52950,mountain,6.643046944198405e-4,0.9168881015648066,0.00151313847062297,43.820143,-112.311283
kootenai,id,136,40,127.4,56.6,27,13.3,51681,mountain,0.0038587559912264075,0.9414010669121828,0.008556960654228384,47.674556,-116.700014
latah,id,128.9,34.7,119.2,50.6,25,18.1,43699,mountain,0.007099733112222424,0.9275516285336719,0.02339802554867463,46.816128,-116.71168
lemhi,id,118.4,57.3,109.7,46.5,33.5,18,38367,mountain,0.002066382539067545,0.9544104352318223,0.004391062895518533,44.943243,-113.933163
minidoka,id,130.3,34.7,109.1,54.8,17.5,14.4,41968,mountain,0.004525109438788057,0.9029560769268604,0.004377551522305839,42.854399,-113.637517
nez perce,id,128.9,30.4,140.7,69.3,26.5,13.4,46753,mountain,0.0038504813101637703,0.8988623577947243,0.008526065758219778,46.326761,-116.750235
owyhee,id,126.5,34.1,120.2,40.7,30.5,18.4,35017,mountain,0.0012328284607256077,0.8521486438886932,0.0015850651637900669,42.581531,-116.169979
payette,id,118.2,41.7,158.5,64.8,24.9,17.6,43642,mountain,0.003820313529179291,0.9185878013436964,0.014139551222939447,44.006738,-116.760843
twin falls,id,126.3,43.7,119,53.4,25.4,16,44602,mountain,0.006386263973812612,0.9255265270829474,0.0157124328330554,42.355978,-114.667163
valley,id,129.5,24.8,121.5,41.3,27.5,11.7,48879,mountain,1.010407194099222e-4,0.988279276548449,0.0011114479135091442,44.766702,-115.566128
washington,id,136.1,38.1,174.4,68.3,23.9,17.9,37539,mountain,0,0.9109118086696562,0.006078724464374689,44.452426,-116.784771
adams,il,115.5,48.5,115.6,74.1,22.4,15.9,43604,east_north_central,0.03795426369325905,0.9300811065139136,0.007976220705313,39.987894,-91.188489
boone,il,117.1,41.3,97.8,66.3,23,10.2,59537,east_north_central,0.021414194125540482,0.8753354704040555,0.013232443715521097,42.32308,-88.823363
bureau,il,111.9,47.7,152.4,69.6,25.2,12,49062,east_north_central,0.006977706818047425,0.9499733901011176,0.007864703447460233,41.404152,-89.528677
carroll,il,124.3,46.8,127.7,54,14.9,14,43643,east_north_central,0.012911512201717028,0.9594402758061246,0.006016359088758197,42.068686,-89.934413
cass,il,112.9,58.6,74.2,89.7,22.5,12.9,45257,east_north_central,0.04415365779002143,0.898989898989899,0.0028313437404346494,39.973565,-90.247386
champaign,il,131.6,33.7,116.3,62.4,24.9,21.6,46917,east_north_central,0.1258308303458967,0.7305784323224493,0.10177792849530085,40.140084,-88.199192
christian,il,130.2,57,105.3,94.1,22.9,13.1,49391,east_north_central,0.015462700661000944,0.9653564683663833,0.005282105760151086,39.545793,-89.277268
clark,il,99.2,49.7,127.4,75.5,19.8,13.7,46287,east_north_central,0.004475107216110386,0.9724656597675431,0.004350798682329542,39.333567,-87.787723
clay,il,126.5,46.6,126,79.5,21.1,14.2,42369,east_north_central,0.0062379325709193524,0.978241497103817,0.002747660775285905,38.754162,-88.490192
clinton,il,138.6,52.1,120.2,63.6,25.8,9.5,61843,east_north_central,0.03388979872153838,0.9387447831369856,0.005626287706693434,38.606452,-89.422485
coles,il,125.1,45.2,94.7,80.4,20.3,19.8,39353,east_north_central,0.03674103253664634,0.9299647740615886,0.011268512556342562,39.520287,-88.221795
cook,il,128.6,46.8,135.4,63.4,13.4,17.8,53795,east_north_central,0.23891536706790434,0.5672859786803632,0.06845334595869021,41.895417,-87.646165
cumberland,il,80.6,60.5,105.9,89.1,23.4,12.1,47382,east_north_central,0.0018365472910927456,0.9833792470156106,0.0032139577594123047,39.273317,-88.24023
de witt,il,122.7,67.7,175.8,94.3,22.2,13.8,53303,east_north_central,0.003369685087611812,0.9610341869868889,4.901360127435363e-4,40.174629,-88.90409
dekalb,il,124.9,43.4,140,72.8,20.2,18.7,54204,east_north_central,0.06880277240613453,0.8395814585766528,0.02473721495720768,41.893529,-88.770315
douglas,il,115.8,41,144.1,66.3,22.9,10.7,49179,east_north_central,0.0029337379868487608,0.9659079413252403,0.006828528072837633,39.769464,-88.217355
dupage,il,145,39.2,123.2,56.1,16.2,7,76269,east_north_central,0.04706108666822853,0.7888457347229596,0.11078178297156195,41.851956,-88.085628
edgar,il,111.6,51.3,93.7,76.6,24.1,18.5,44433,east_north_central,0.004487323311644604,0.9804240520529505,0.0042629571460623735,39.678535,-87.745571
effingham,il,119.4,56.7,159.6,67.5,22.8,11.1,50900,east_north_central,0.0043951565956455935,0.9765688671556643,0.00596693445104203,39.05977,-88.589857
fayette,il,112.8,43.9,110,58,20.4,16.9,43014,east_north_central,0.044721906923950054,0.9348467650397276,0.004903518728717367,39.000191,-89.024144
ford,il,149.8,45.9,128.3,66.8,23.4,11.4,52375,east_north_central,0.008358773077482192,0.9741968309347289,0.004143044047099869,40.597177,-88.223259
franklin,il,132.3,45.3,118.1,103.4,25.9,20,35681,east_north_central,0.006100802470698428,0.9725843606814673,0.005619826342303116,37.992285,-88.924154
fulton,il,138.6,45.3,133.1,74.9,21.1,14.8,46342,east_north_central,0.03581435348295281,0.9436846339501207,0.0019973922933947345,40.472766,-90.207473
grundy,il,125.1,50.3,142,90,21.6,8,68474,east_north_central,0.01605149191465692,0.9398267710278517,0.0071317891056458345,41.285087,-88.418495
hamilton,il,76.8,69.1,167.5,85.2,31.2,14.9,42330,east_north_central,0.00496909465519331,0.9928493515937462,0.0012119743061447098,38.081574,-88.539106
hancock,il,135.4,46,109.6,74.4,24.3,12.2,47965,east_north_central,0.004883808297107283,0.9764933183062309,0.0036494391670691784,40.403776,-91.164698
henry,il,119.3,45.6,108.7,74.9,25.8,11.2,52117,east_north_central,0.018276604738229906,0.9361123970934563,0.005535315311688573,41.353133,-90.131417
iroquois,il,120.6,55.7,94.2,72,18.9,14,46977,east_north_central,0.012459221211910877,0.9387103491358367,0.0048934545706948015,40.747226,-87.824304
jackson,il,120.6,48,97,69,22.7,29.5,34243,east_north_central,0.14377914442116646,0.7735520713658174,0.03559843211461783,37.78514,-89.382116
jefferson,il,115.2,50.9,164.2,92.7,25.9,18.4,40663,east_north_central,0.08306725852088363,0.8773200425719699,0.011499623601484828,38.30052,-88.924008
jersey,il,100.1,29.7,117.1,78.7,29.8,10.5,54331,east_north_central,0.002851922819838688,0.971703578271913,0.005748406933737356,39.085662,-90.356683
jo daviess,il,118.6,42.6,126.3,55.9,23.4,10.2,49573,east_north_central,0.0040115388082574595,0.9757504732714324,0.0050482286126386005,42.365816,-90.212586
johnson,il,131.4,64.9,93.1,83.6,20.6,17.9,39965,east_north_central,0.09676667184828229,0.8890875174879528,0.002487175501321312,37.459631,-88.880889
kane,il,124.9,37.8,128.3,58.9,17.9,10.9,71444,east_north_central,0.056103605100500366,0.7247533777047749,0.03730809035063566,41.938904,-88.428638
kankakee,il,112.1,46.1,136,73.6,15.1,16.7,49584,east_north_central,0.15165077628191903,0.7995927995479537,0.010691254159453956,41.137705,-87.861798
kendall,il,128.6,45.8,131.9,54.6,21.4,5.8,79648,east_north_central,0.06531798570628726,0.8311596350821724,0.031460988703356056,41.590542,-88.428834
knox,il,116.1,44.9,108.3,69.1,26.2,19.6,39494,east_north_central,0.08502086875869531,0.8661501004792085,0.010782191992579997,40.931817,-90.213259
la salle,il,116.4,49.6,180.1,76.4,26.3,13.8,49487,east_north_central,0.024407021932371466,0.9428596953589137,0.006736052173136195,41.343995,-88.885946
lake,il,135.8,39.3,112.7,58.2,22.7,9.5,75106,east_north_central,0.06841895602441349,0.7979498925863222,0.06927115195834341,42.325323,-87.631209
lee,il,112,47.3,120.7,66.9,25.3,12.4,53126,east_north_central,0.05089578892793364,0.9078863989861167,0.006221556541275419,41.746193,-89.300387
livingston,il,126.9,49.7,154.6,81.6,26.6,12.5,52819,east_north_central,0.04402060196362466,0.9245667686034659,0.006840495734749718,40.891557,-88.557717
logan,il,123.9,60.6,125.3,90.7,18.3,13.6,50991,east_north_central,0.10248155600268276,0.8054996646545942,0.006002682763246144,40.124557,-89.367546
macon,il,131.4,51,147.1,96.6,24.3,18.1,46179,east_north_central,0.1413139736541087,0.7835780967491974,0.011752333862219107,39.859995,-88.961597
macoupin,il,126,51.5,132.2,79.5,20.8,13.9,50089,east_north_central,0.00546448087431694,0.9700098963039456,0.004819069747429112,39.261015,-89.924433
madison,il,124.7,43.5,121.6,83.5,21.1,13.7,53864,east_north_central,0.0825051825805315,0.881147402711811,0.009011879636675801,38.829853,-89.905168
marion,il,125,49.1,128,91.5,26.3,19.2,40969,east_north_central,0.03516609095395164,0.929797678103005,0.008492844713398956,38.649591,-88.918973
marshall,il,140.1,48.1,175.6,58.5,27.1,10.2,50899,east_north_central,0.003648424543946932,0.9716417910447761,0.0035655058043117744,41.033174,-89.344777
mason,il,111.3,49.9,108.5,92.3,25.6,14,45563,east_north_central,0.007465365013279736,0.9769578637570885,0.004306941353815232,40.239648,-89.916784
massac,il,120.2,45,113.3,100.9,21.1,17.5,41373,east_north_central,0.06416717059732581,0.909830007390983,0.004165826782234765,37.219027,-88.707744
mcdonough,il,107.5,50.2,111.9,63.1,23.1,21.1,41661,east_north_central,0.053865792542629305,0.9034891417404735,0.020235130961011125,40.456211,-90.67791
mchenry,il,138.2,43.6,119.1,65.3,19.9,7.1,75713,east_north_central,0.013048589469296575,0.9234115857927662,0.026673570337661153,42.324387,-88.45245
mclean,il,131,42.1,157,64.1,30.2,13.8,62261,east_north_central,0.08223186766250708,0.834231821487527,0.04934950996802383,40.49089,-88.847323
menard,il,134.7,46.9,101.3,75.9,20.6,10.8,60151,east_north_central,0.00691793893129771,0.972248727735369,0.004452926208651399,40.027397,-89.80217
mercer,il,139.9,44.6,120.2,76.7,26.7,9.7,53626,east_north_central,0.005447373364222654,0.9757059670653059,0.002942833886419135,41.205339,-90.741408
monroe,il,125.2,44.1,130.8,60.9,29.6,4.9,71604,east_north_central,0.0029374239681927423,0.9763819244577634,0.011185947838471353,38.278649,-90.177377
montgomery,il,136.6,55.6,118.2,86.5,19.2,16.1,42614,east_north_central,0.08009965530186683,0.8991160711238524,0.002696153714890277,39.23104,-89.47887
morgan,il,135.4,48.7,122.2,77.6,20,16,48223,east_north_central,0.05939484497571909,0.9111232435849544,0.006091778971868625,39.715565,-90.201496
moultrie,il,137.3,38,98.9,56.9,23.6,12.4,47645,east_north_central,0.003620516258799866,0.9826349312772377,0.0012068387529332886,39.641479,-88.619299
ogle,il,122.5,40.8,83.1,66.7,26.4,13,51334,east_north_central,0.010377829880462774,0.9438059730176424,0.004170350155667448,42.042645,-89.320654
peoria,il,135.3,47.3,149.6,84,23.8,17,49827,east_north_central,0.17413204295089338,0.7353520538706121,0.037614148529584945,40.788081,-89.759987
perry,il,125,54.5,108.3,74.4,26.2,17.6,41931,east_north_central,0.0844176892799259,0.8907617504051863,0.005695762908080574,38.08376,-89.367015
piatt,il,146.6,30.1,118.3,79.8,40.3,7.2,66279,east_north_central,0.003946809156597243,0.9737081790029752,0.004614730706175238,40.010367,-88.591091
pike,il,111,57.6,98.7,68.4,18.5,17.3,39430,east_north_central,0.012956272580042357,0.9674224492338358,0.0033013579170300235,39.622496,-90.886287
randolph,il,97.2,57.9,102.1,78.6,21,14.1,44991,east_north_central,0.10493714702131536,0.8734134936539746,0.003370377117872108,38.052124,-89.825311
richland,il,120.3,48.9,127.7,81.6,26.8,16.4,41985,east_north_central,0.005662020905923345,0.9708810353409657,0.006533101045296167,38.71236,-88.085101
rock island,il,119.9,44.3,118.3,66.8,26.4,15.8,48160,east_north_central,0.09599006387508871,0.8196552383032156,0.022656548561445652,41.46733,-90.567426
saline,il,104.2,57.9,118.2,91.8,22.7,18.6,39281,east_north_central,0.03369966340889736,0.9317085039944848,0.006691268907903808,37.753183,-88.540801
sangamon,il,138.1,48.5,119.7,77.6,21.8,15.2,55255,east_north_central,0.12663676317339495,0.8246869950009816,0.017715554347333604,39.758173,-89.658898
shelby,il,113.4,48.2,100.5,77.1,20.1,12.6,50569,east_north_central,0.006496751624187906,0.9838717005133797,0.0034982508745627187,39.391156,-88.805536
st. clair,il,123,45.9,126.2,75.8,19.2,18.3,48343,east_north_central,0.2989882102203194,0.649157092883582,0.013638640052114516,38.470305,-89.92841
stephenson,il,108.2,39.3,104.7,63.8,21.4,18.6,42897,east_north_central,0.09312274485232158,0.8618715295032734,0.008383207657239159,42.351747,-89.66236
tazewell,il,125.9,48.3,139.6,87.2,24.1,8.9,57544,east_north_central,0.012038404726735598,0.9598449039881831,0.00929098966026588,40.507517,-89.51342
union,il,124.9,48.5,102.9,102.7,25.5,16.7,42799,east_north_central,0.007102760911902852,0.9400847748883033,0.0043533050750372325,37.471228,-89.255088
vermilion,il,133.8,54.2,140.6,86.4,20.2,19.6,44085,east_north_central,0.137490108399382,0.827892429628327,0.008943263034931481,40.183422,-87.732835
warren,il,151.9,48.2,109.4,74,24.3,15.1,45770,east_north_central,0.02799386746919539,0.8992107205723695,0.02169098858667878,40.848832,-90.615029
washington,il,110.1,66.2,153.6,74.1,23.1,9.9,53967,east_north_central,0.00800334052474076,0.9670819124504141,0.005010787111142042,38.352175,-89.410454
wayne,il,128.7,34,122.6,89.2,23.6,17.4,42896,east_north_central,0.006659805049343101,0.9729369740267603,0.007749591330144699,38.429565,-88.425614
whiteside,il,122.9,38.1,120.4,71.8,22.3,12.1,50489,east_north_central,0.01985828011547546,0.9270055113288426,0.005388854868340478,41.756265,-89.914092
will,il,129.2,45.2,134,72,16.4,8.5,74669,east_north_central,0.11163620658964835,0.7419248940000992,0.05131474894146004,41.445035,-87.978658
williamson,il,104.7,55.7,108.6,97.5,23.9,16.2,44041,east_north_central,0.043305215635024354,0.9229535463942022,0.009875846501128669,37.730247,-88.929937
winnebago,il,117.4,42.2,105.2,74,24.3,16.3,47214,east_north_central,0.1250276916260523,0.7858883473637572,0.025240917146654853,42.336265,-89.160853
woodford,il,141.4,42.3,119.1,61,24,7,67036,east_north_central,0.005495488587276027,0.9682795286660021,0.007821486082355647,40.788232,-89.211137
adams,in,103.4,54,110.6,50.2,23,15.5,48001,east_north_central,0.007095050699451355,0.9692643552695832,0.003475713095682647,40.74566,-84.936655
allen,in,122.3,42.7,101.2,61.9,18.4,17,45587,east_north_central,0.1153502113167289,0.7959925047529167,0.03344959172787329,41.090871,-85.066562
bartholomew,in,122.4,40.2,86.1,77.8,20.7,11.6,54341,east_north_central,0.01897684625263394,0.861663528795681,0.057167437627021436,39.205973,-85.897605
blackford,in,104.9,51.6,122.6,74.9,22,15.4,39373,east_north_central,0.006065998058880621,0.973471368489162,0.0030734390164995147,40.473601,-85.32482
boone,in,141.9,34.8,104,67,19.1,7.3,68047,east_north_central,0.013040527438433197,0.9405823799366557,0.024190420787279426,40.050801,-86.468696
brown,in,90.3,45.7,93.7,61.8,29.3,13.4,51074,east_north_central,0.0027397260273972603,0.9717340461075844,0.002940193785499499,39.196211,-86.227375
carroll,in,93.7,42.5,102.8,66.1,17.8,10.9,52587,east_north_central,0.00449842555105713,0.9700104963262858,8.99685110211426e-4,40.582859,-86.563484
cass,in,115.4,42.4,107.1,89.5,11.3,13.8,41611,east_north_central,0.014664440037574366,0.848893643669763,0.014768813276275963,40.761491,-86.345947
clark,in,118.5,43.6,56.3,88.1,12.8,11.7,50296,east_north_central,0.06945163299500846,0.8816857175440598,0.007816269420052108,38.477195,-85.707272
clay,in,117.6,52.3,107.5,73.8,20.1,15,47030,east_north_central,0.002408912978018669,0.9728997289972899,8.280638361939175e-4,39.392728,-87.115758
clinton,in,113.1,48,94.1,76.2,16.6,14.4,47279,east_north_central,0.010920102777437905,0.9351217423222807,0.0021106080998409397,40.301691,-86.47516
daviess,in,82.6,44.1,91.3,62.8,17.9,13.9,45578,east_north_central,0.017892766166405793,0.9566645183070926,0.002731485744099684,38.70241,-87.072068
de kalb,in,126.4,50.4,98.4,68.5,17.8,12.9,50279,east_north_central,0.003600932005930947,0.9692861681847066,0.0036480030125444233,41.39758,-84.999084
dearborn,in,121.4,42,101,82.3,16,10.8,55077,east_north_central,0.008415402001937359,0.9711616080077494,0.004177429770745883,39.145186,-84.973261
decatur,in,81.6,35.8,118,69.6,19,12.9,47666,east_north_central,0.005656795747911921,0.9638192862566439,0.013249810174639332,39.307,-85.501143
delaware,in,114.9,43.4,122.5,79.9,21,23,37116,east_north_central,0.06116964186050505,0.8864875539871032,0.01298266402204992,40.227525,-85.396899
dubois,in,111.8,41.6,116.9,55,24,8.9,55606,east_north_central,0.004179950407368048,0.9497697484945093,0.006612350926909907,38.364276,-86.879802
elkhart,in,112.9,42.1,102.9,70.2,19.2,15.5,46123,east_north_central,0.056020630827216825,0.8736361832969649,0.010841102955762745,41.597384,-85.858755
fayette,in,83.9,33.9,98.5,87.4,16.3,17.3,40212,east_north_central,0.024483226025076247,0.9624279905116909,0.0016943409013893595,39.640056,-85.178725
floyd,in,132.3,38.5,71.9,79.3,15.1,13.1,55844,east_north_central,0.05160571503473588,0.9023594180102241,0.01061738104600865,38.318929,-85.906831
franklin,in,100.6,32.8,118.6,64.7,19.7,11.4,53538,east_north_central,0.0033206623847599074,0.97915847424302,0.007995805479092935,39.414865,-85.060285
fulton,in,119.6,55.6,100.2,83.8,20.9,16.3,44337,east_north_central,0.009014305310601607,0.9433666470703508,0.005437977660199883,41.046963,-86.263584
gibson,in,112.7,44,119.2,70,19.4,12,48579,east_north_central,0.01822823892649329,0.9513715710723192,0.002464077900486878,38.311825,-87.584595
grant,in,116.4,56.1,130.5,85.5,19.6,21.7,39325,east_north_central,0.07064699937013871,0.886288066325858,0.007411856040076755,40.515845,-85.654726
greene,in,97.8,44.4,75.3,81.1,23.8,13.7,43786,east_north_central,0.0032176018141145467,0.9800202249256887,0.003891766003738547,39.036329,-86.962047
hamilton,in,131.1,37.3,95,46.7,22.8,5.5,84022,east_north_central,0.03560562562285096,0.8765748642102414,0.055269566594729445,40.072489,-86.052014
hancock,in,121.5,39.9,74.5,83.1,25.3,6.5,67738,east_north_central,0.02033215203946911,0.9530817872281286,0.007462997706900146,39.82355,-85.773238
harrison,in,124.2,35.3,73.3,90.7,16.4,13,50321,east_north_central,8.636017272034544e-4,0.9727965455930911,0.0077724155448310895,38.195123,-86.111311
hendricks,in,133,35.6,110.1,69.9,17.5,6.4,68575,east_north_central,0.061495215541308074,0.8893060449116592,0.024798321107452975,39.769517,-86.509976
henry,in,108.7,48.9,91.6,76.6,18.9,17.2,42133,east_north_central,0.02028476293587727,0.9514840765632341,0.0034727187302106104,39.93104,-85.396435
howard,in,108,36.2,85.9,75,16.8,15.8,45211,east_north_central,0.070822454308094,0.8808625858234214,0.013224059568707088,40.483586,-86.116931
huntington,in,127.9,40.1,107.4,65,21.5,13,44828,east_north_central,0.00855679093089165,0.9668356224111619,0.008039023326793111,40.82924,-85.488172
jackson,in,128.8,50.3,90,81.4,25.9,12.9,49614,east_north_central,0.005454087127896051,0.9212136489676193,0.023053830464972384,38.90642,-86.037538
jasper,in,123.7,45.4,101.9,85.6,10.9,10.7,53757,east_north_central,0.009085203669944114,0.9563969994919459,0.0037058067601087835,41.022998,-87.116121
jay,in,122.6,65.7,100.6,68.9,25.6,16,41847,east_north_central,0.0036799396112474052,0.9798546895640687,0.0036799396112474052,40.437918,-85.005635
jefferson,in,96.7,45.3,106.6,81.7,17.9,15.3,44569,east_north_central,0.019302998583831044,0.9467089464934425,0.008066005787820947,38.785823,-85.438573
jennings,in,111.7,42.2,71.4,97.9,19,16.9,44554,east_north_central,0.013274809977518467,0.9716661313920708,0.0022481533026442566,38.99693,-85.628065
johnson,in,117.5,46.3,62.4,67.9,21.7,11.8,58936,east_north_central,0.02119715112457392,0.9250645469515542,0.024815846361313842,39.489971,-86.101637
knox,in,133.1,54,121.5,76,20.6,15.9,44091,east_north_central,0.03006112340604911,0.943276425334598,0.007376962799030456,38.68909,-87.418008
kosciusko,in,121.7,48.8,102.6,71.6,22.7,12.7,51603,east_north_central,0.009291240234001606,0.9375740813907546,0.01028536470348326,41.244097,-85.860718
la porte,in,112.1,46.6,127.4,77.2,26.4,17,46610,east_north_central,0.10957447766976296,0.8357734271530637,0.005649004892200409,41.549022,-86.742366
lagrange,in,104.4,37.7,83.4,56.4,16.2,12.7,51810,east_north_central,0.0022398749837218386,0.9794244042192994,9.115770282588879e-4,41.642606,-85.426498
lake,in,127.2,50.8,131.9,74,10.7,17.8,48341,east_north_central,0.24651111501374318,0.6184771022140176,0.013685986056712505,41.472211,-87.376382
lawrence,in,107.2,55.6,95.9,89.5,27.3,12.9,44435,east_north_central,0.0035014005602240898,0.9665397408963585,0.00507703081232493,38.841163,-86.483451
madison,in,114.3,42.2,128.7,81.8,16.3,19.6,41117,east_north_central,0.07846021160924674,0.8782861807149127,0.004212163681446459,40.161656,-85.719345
marion,in,126.7,39.7,86.5,79.7,14.1,21.3,41478,east_north_central,0.2734164966281961,0.6244188117261104,0.027076346736870562,39.78171,-86.138472
marshall,in,108.4,42.7,116.3,67.1,18.2,13.8,45855,east_north_central,0.006042747635214485,0.9360707193645507,0.004099673307283326,41.324849,-86.261761
miami,in,88.2,33.2,82.1,77.1,12.2,17.7,43694,east_north_central,0.04995428476435874,0.9146094810628099,0.004349873936774443,40.769504,-86.045023
monroe,in,123,44,96,66.9,31,24,42404,east_north_central,0.030915892024676882,0.8671244731038719,0.0625715322558133,39.160918,-86.523137
montgomery,in,108.5,41.7,83.6,70,12.1,12.5,50889,east_north_central,0.0089220111262727,0.9609530807179595,0.006297890206780728,40.040379,-86.8933
morgan,in,132.2,51.9,108.9,83.9,21.3,12.7,56491,east_north_central,0.003740791896869245,0.9734403775322283,0.006747813075506446,39.481548,-86.446212
noble,in,116.2,41.6,89.2,69,14.6,13.6,48789,east_north_central,0.003572404228045475,0.9672389518145712,0.0065564124655893416,41.398599,-85.417467
orange,in,115.4,58.5,70.1,85.4,18.5,16.8,39411,east_north_central,0.012768782879615914,0.9661882629347771,0.005107513151846366,38.541779,-86.495069
owen,in,96.6,50,86,85,22.6,15,42994,east_north_central,0.0064169597870520016,0.9752828215609849,0.004943435687803023,39.312812,-86.837652
perry,in,124.7,39.1,77.5,101.2,13.7,14.2,45722,east_north_central,0.030879229055489354,0.9474638619760635,0.002953214859333713,38.079649,-86.638032
pike,in,123.4,49.3,102.2,66.6,22.8,12.3,45679,east_north_central,0.007965588657001752,0.9735542456587541,0.009956985821252191,38.398783,-87.232164
porter,in,125.3,46.6,125.9,73.6,17.1,11.7,64530,east_north_central,0.03537385639699191,0.9164331561048044,0.014076495665085979,41.508838,-87.073319
posey,in,108.8,42.8,119.8,60.3,23.5,9.6,58477,east_north_central,0.013475927449367337,0.9710894347161829,0.004779253339601206,38.021892,-87.868471
pulaski,in,111.5,48,122.4,71.1,22,14.3,44821,east_north_central,0.0034856700232378003,0.9618125484120836,0.004027885360185902,41.041832,-86.698779
putnam,in,119.8,49.2,66.7,95.1,14.1,13.2,51052,east_north_central,0.03564024876415245,0.9385265507893478,0.008929995216073992,39.666262,-86.845
randolph,in,119.3,47.7,133.9,83.1,22.6,18.1,41057,east_north_central,0.009290241310081486,0.9653977876628744,0.0019289060347203086,40.15764,-85.01131
ripley,in,101.4,41.7,92,75.6,25.3,10.2,47495,east_north_central,0.003946495302622848,0.9679740159955297,0.009953550099535502,39.103455,-85.262386
rush,in,132.3,43.6,87.3,80.8,20.4,12.8,46910,east_north_central,0.012327386949564393,0.9700112605938481,0.0017187222189296509,39.619948,-85.465761
scott,in,116.5,53.1,54,91.8,15.1,17,43650,east_north_central,0.0024858852279430353,0.9744248757057387,0.003960562905536361,38.68507,-85.747468
shelby,in,133.5,47.6,99.2,81.8,22.6,12.6,49657,east_north_central,0.012904242861003513,0.9425277002071886,0.0065534636519232504,39.523692,-85.7917
spencer,in,113.5,43.3,99,77.9,21.5,10.5,50533,east_north_central,0.006353178996005198,0.9655388169610627,0.0015401646050921692,38.014059,-87.007706
st. joseph,in,121.3,45.8,117.5,71.5,16,20.1,40978,east_north_central,0.129385571693264,0.7912034546649931,0.02102384794692487,41.616718,-86.289858
starke,in,103.7,42.6,109,93.5,20.9,19.4,39552,east_north_central,0.004161428757206641,0.9656682127530453,0.0030343751354631756,41.280926,-86.647649
steuben,in,99.7,39.1,99,71,16.9,12.3,46275,east_north_central,0.0024796522652352753,0.9724904460456839,0.004755097873333528,41.643868,-85.000765
sullivan,in,95.3,50.5,93,81.8,12.6,18.3,41978,east_north_central,0.045277275753828596,0.9339389327499287,0.003186530961666508,39.088835,-87.41469
switzerland,in,88.1,71.3,57.9,84.7,32.5,19.9,43243,east_north_central,0.006104540251812286,0.9768218237314003,0.0015261350629530714,38.826161,-85.036998
tippecanoe,in,122.4,44.7,99.9,64,20.3,19.6,47808,east_north_central,0.046811016537893206,0.8405426479168143,0.07591727236541491,40.388619,-86.894097
tipton,in,129.6,56,65.5,73.3,17.3,10.3,53185,east_north_central,0.001683174726484107,0.9642649058069528,0,40.311345,-86.051859
vanderburgh,in,110.8,40.2,102.4,79.6,13.8,18.7,42014,east_north_central,0.08995442837329107,0.8601754617704687,0.010583845188560861,38.025143,-87.585783
vermillion,in,105,54.9,130,92.6,17.7,13.9,40813,east_north_central,0.0037455561198577957,0.9810182833925851,0.001015744032503809,39.853797,-87.463974
vigo,in,133.1,46.8,112.4,80.4,18.2,23.9,39014,east_north_central,0.05858518580190381,0.8745501808527368,0.01903810396025865,39.430639,-87.389964
wabash,in,101.7,47.1,120.3,64.3,24.4,14.2,45833,east_north_central,0.008360008701867793,0.956055567641483,0.0011809677720110638,40.845693,-85.794006
warrick,in,139.4,40.9,109.2,66.7,17.6,7.9,61820,east_north_central,0.015318996532469435,0.9440311263776515,0.021847070506454815,38.092166,-87.272054
washington,in,128,51.4,68.5,96.2,15.8,15.5,43981,east_north_central,4.6776050662061027e-4,0.9822610823258492,0.0016191709844559584,38.599984,-86.105306
wayne,in,111.3,44.2,113.1,85.2,20.3,23,36623,east_north_central,0.05001260697388132,0.8975127182118862,0.008646900909185292,39.864416,-85.009876
wells,in,114.6,34.7,82.1,52.4,24.7,11.8,49452,east_north_central,0.007220865066819945,0.9688173588159218,0.006933467452220146,40.729187,-85.22122
whitley,in,109.8,43.2,106.3,63.8,24.4,8.9,52673,east_north_central,0.0038975834982310966,0.9683995922528033,0.00365773220603226,41.139375,-85.505118
adair,ky,117.7,48.9,85,91.2,18.4,25,31710,east_south_central,0.030956358321152642,0.948214658592608,0.002505742326164126,37.104156,-85.280649
allen,ky,127.4,45.6,93.7,82.9,14.9,20.6,39798,east_south_central,0.015180451496009011,0.9647421771705598,0.0035257822829440283,36.751317,-86.190419
anderson,ky,137.6,51.1,129.7,95.1,24.1,11.4,52852,east_south_central,0.025517903690492522,0.9540403347509947,0.003841404856633283,38.003911,-84.991009
barren,ky,104.4,51,116.2,106.9,20.1,20.7,38370,east_south_central,0.04091297618222561,0.9282001524707187,0.004735832929054913,36.965581,-85.933663
bath,ky,136.2,53.9,129.3,109,27.2,26.5,33752,east_south_central,0.015603071080657146,0.9616114917856848,0.0018987864278048377,38.144974,-83.742667
bell,ky,83.9,57.7,96.2,99.5,20.4,35.7,25761,east_south_central,0.03374765139471022,0.9498482439658911,0.00364937129643012,36.730648,-83.674095
boone,ky,122,42.7,134.2,86,23.4,8.7,65274,east_south_central,0.027638950786273635,0.9178153052779016,0.024344241421022473,38.969864,-84.727866
bourbon,ky,100.2,39.9,128,93.4,26.9,16.5,40045,east_south_central,0.07173565286942611,0.9026694661067787,0.002749450109978004,38.206734,-84.217151
boyd,ky,114.7,48.3,113.1,92.7,29.2,20.3,41443,east_south_central,0.026254208063059364,0.94400197060514,0.0038591017324903524,38.359572,-82.687726
boyle,ky,141.8,44.8,133.5,77.6,29.5,17.2,43585,east_south_central,0.07042158516020236,0.8884317032040472,0.007925801011804385,37.624333,-84.866812
bracken,ky,119.8,78.7,115.3,120.6,42.2,16.2,43222,east_south_central,2.3798191337458352e-4,0.9842931937172775,9.519276534983341e-4,38.688814,-84.09019
breathitt,ky,101,69.9,90.6,105.7,22.4,33.9,26869,east_south_central,0.006010685663401603,0.9769961412882161,0.004452359750667854,37.521617,-83.324085
breckinridge,ky,110.9,62.1,107.6,110.2,26.7,19.2,40107,east_south_central,0.01765,0.95725,0.0038,37.773268,-86.429278
bullitt,ky,142.5,55.7,109.5,90.9,30.3,10.2,57462,east_south_central,0.00625265351808252,0.9633074735934746,0.005236275682838653,37.970076,-85.695857
caldwell,ky,103.7,42.6,114.7,103.9,21.2,19,37317,east_south_central,0.061138109421539424,0.9253017714375293,0,37.145333,-87.867907
calloway,ky,98.1,45.9,124.6,79.1,32.8,22.8,37977,east_south_central,0.03618609994256174,0.9147564095869667,0.01704871808260665,36.621101,-88.272201
campbell,ky,126.9,54.5,118.5,94.5,29.2,14.8,53321,east_south_central,0.033414975507347795,0.9382872638208537,0.007544611616515045,38.946477,-84.379696
carroll,ky,137.7,63.9,83.7,120.7,38.3,21,41792,east_south_central,0.025334075723830736,0.897271714922049,0.003619153674832962,38.667858,-85.12359
carter,ky,132.6,54.1,119.8,103,16.3,22.5,34767,east_south_central,0.008903708046313939,0.9796277297376521,0.0011725047633006009,38.318173,-83.049537
casey,ky,105,52.5,119.9,108.6,21.7,29.7,29303,east_south_central,0.006654947262682069,0.9716850828729282,0.0027624309392265192,37.32228,-84.928369
christian,ky,102.7,48.4,121.8,84.9,21.5,18.1,41333,east_south_central,0.20489342133737287,0.7184862583856308,0.014877732092620645,36.894181,-87.490381
clark,ky,132.9,54.3,109.8,93.4,31.7,17.1,45516,east_south_central,0.0520920853638044,0.927351145465748,0.006049403461603092,37.970852,-84.147399
clay,ky,119.6,55.5,157.4,118.6,17.2,42.8,24173,east_south_central,0.04012287334593573,0.936531190926276,6.143667296786389e-4,37.159711,-83.714681
clinton,ky,119.6,57.7,101.6,111.7,32.4,27.6,27443,east_south_central,0.007078254030672434,0.979748328745576,0.0022611089264648054,36.727482,-85.136014
cumberland,ky,99.7,59.9,96.6,96.4,39.7,26.2,30043,east_south_central,0.03289085545722714,0.946165191740413,0.003982300884955752,36.78653,-85.388449
daviess,ky,110.7,43.9,151.1,110.2,27.2,15.3,46908,east_south_central,0.04652364166767959,0.9150054697945789,0.011527085612414409,37.731772,-87.087227
estill,ky,131.1,55.3,94,124.6,24.8,28.1,30388,east_south_central,0.0011800638622796056,0.9794530056920727,0,37.692482,-83.96433
fayette,ky,141.3,42.4,134.2,74,26.7,19,47959,east_south_central,0.1454728131249418,0.7583306851047575,0.034959827174998154,38.042324,-84.458726
fleming,ky,142.6,66,109,90.5,28,23.2,35454,east_south_central,0.01340851268651585,0.9627999724953586,9.626624492883174e-4,38.37011,-83.696647
floyd,ky,114.1,58.5,110,149.4,16.8,30.6,31229,east_south_central,0.007314387583892618,0.9782141359060402,0.0029886744966442953,37.557109,-82.745704
franklin,ky,134.4,49.9,92.2,93,32,16.9,46309,east_south_central,0.10301708615101436,0.8278380216878076,0.017626345484374376,38.239148,-84.877068
garrard,ky,139.3,64.7,99.6,97.8,28.7,19.3,42853,east_south_central,0.01214005043692452,0.9613512403964577,0.0015834848395988505,37.639578,-84.537633
grant,ky,129.6,54.4,131.1,95.8,12.5,20.1,43861,east_south_central,0.005909734871483505,0.9487553126897389,8.500303582270795e-4,38.648812,-84.624614
graves,ky,127.2,47.6,90.4,85.8,27.5,19.3,39960,east_south_central,0.045212552502742184,0.9090398352015838,0.004039701436635544,36.723138,-88.651206
grayson,ky,121.4,70.2,86.9,129.7,25.4,25.1,32813,east_south_central,0.01391231028667791,0.9624405948183351,0.0017629924881189638,37.460819,-86.343877
green,ky,101.5,52.2,94,86.4,36,23.1,32309,east_south_central,0.02238604692978513,0.952440888249573,0.003865863526027151,37.264108,-85.553105
greenup,ky,108.3,47.9,104.1,107.4,24.9,19,44581,east_south_central,0.00780581988691215,0.9700730933664322,0.004192525168942215,38.545665,-82.922288
hardin,ky,121.3,51.5,135.4,101.5,20.4,14.4,48327,east_south_central,0.11603283351770426,0.7970866295445883,0.02157604603385608,37.697924,-85.963372
harlan,ky,89.1,56.9,86,127.6,20.4,30.5,25460,east_south_central,0.02443723020941101,0.955192465484642,0.004102600692090899,36.856974,-83.217952
harrison,ky,90.7,50.5,106.3,95.8,20.6,17.4,42228,east_south_central,0.02012990498684846,0.9506146330989318,8.588759461055343e-4,38.441807,-84.331385
hart,ky,88.4,49.8,79.2,114.5,21.5,27.9,33588,east_south_central,0.04764991896272285,0.9329011345218801,0.0023230686115613183,37.299927,-85.884709
henderson,ky,119.1,57.3,97.5,97.8,19.6,19.5,42492,east_south_central,0.0721927440576334,0.883740994780208,0.0034726715844872955,37.795898,-87.573161
henry,ky,144.5,52.8,109.3,109.3,33.6,15.4,48245,east_south_central,0.034711488923235445,0.9330242143225141,0,38.448468,-85.11893
hopkins,ky,101.3,47.8,99.2,89.9,24.2,17.5,40782,east_south_central,0.0631592571021808,0.9008175327336655,0.005069134364416834,37.30882,-87.540842
jackson,ky,124.3,63.3,128.3,118.3,21.2,30.3,28759,east_south_central,0.001422475106685633,0.9938608969079883,0,37.419777,-84.005766
jefferson,ky,139.1,51.1,133.6,89.6,21.9,16.1,47495,east_south_central,0.20956952788117791,0.727223307411639,0.02545529692361963,38.187191,-85.659158
jessamine,ky,112.3,42.8,122.1,89,36,15.4,52011,east_south_central,0.03751837694795648,0.9176516710771342,0.013427423306870528,37.87203,-84.580933
johnson,ky,120.2,64.3,104.9,113,17.5,25.7,34593,east_south_central,0.004424398625429553,0.9768041237113402,0.007388316151202749,37.846639,-82.83154
kenton,ky,120.7,46.1,113,90.3,22.4,13.4,53949,east_south_central,0.043741163942151745,0.9038636906109809,0.012271027522598888,38.933456,-84.533341
knox,ky,88.8,53.2,117.1,125,18.7,35.2,26220,east_south_central,0.014524259609325772,0.9710144927536232,0.00428481411468179,36.890666,-83.854044
laurel,ky,107.7,53.2,132.8,89.1,27.8,22.2,35372,east_south_central,0.006171809841534612,0.9709090909090909,0.005604670558798999,37.11067,-84.1178
lawrence,ky,98.2,69.2,84.8,113.9,21.3,25.2,33469,east_south_central,0.004473850031505986,0.9775047258979206,0.00428481411468179,38.067879,-82.734755
