name,state,breast,colorectal,prostate,lung,melanoma,poverty,income,region,lat,lon
anchorage borough,ak,127.8,40.9,113,61.5,14.5,7.7,76362,pacific,61.148133,-149.194236
fairbanks north star borough,ak,133.2,39.2,82.1,58.1,13.1,8.8,67204,pacific,64.807921,-146.563655
juneau borough,ak,101.6,36.9,117.9,35.1,13.7,7.5,83642,pacific,58.445711,-134.234239
kenai peninsula borough,ak,127.4,41,96.5,64.9,12.3,10.1,61629,pacific,60.115308,-151.704297
matanuska-susitna borough,ak,119.8,37.5,121.4,69.7,15,9.4,72371,pacific,62.304529,-149.578978
autauga,al,150.8,46.2,110.6,74.9,25.4,13.5,51868,east_south_central,32.534921,-86.642757
baldwin,al,117.5,41.5,121.3,66.9,30.9,14.2,47539,east_south_central,30.660974,-87.749845
barbour,al,132.6,49.6,159.8,74.6,12.3,28.2,30981,east_south_central,31.869603,-85.393197
bibb,al,158.1,44.5,116.7,86.4,15.6,23.1,39781,east_south_central,32.998644,-87.126439
blount,al,110.2,41.1,95.6,69.7,27.1,17.2,44392,east_south_central,33.980867,-86.567371
butler,al,142.1,47.8,157,58.3,17.7,28.8,31041,east_south_central,31.752434,-86.680289
calhoun,al,104.5,46.3,148.6,84.2,17.8,21.4,37898,east_south_central,33.771428,-85.826035
chambers,al,114,49.7,160.9,75.4,16.4,22.5,33883,east_south_central,32.914372,-85.392043
cherokee,al,109.9,35.9,115.7,82.4,17.2,20.1,37478,east_south_central,34.175956,-85.603794
chilton,al,120.4,29.5,112.3,73.9,22.1,20.3,41348,east_south_central,32.847853,-86.718814
clarke,al,111.8,67.1,138,69.5,24.5,25.4,34593,east_south_central,31.67666,-87.83081
clay,al,97.5,44,164.3,83.3,30.2,19.6,33344,east_south_central,33.269086,-85.860547
cleburne,al,90.6,49.6,115.6,74.9,23.4,18.9,40407,east_south_central,33.674558,-85.518768
coffee,al,121.3,30.3,146.6,71.5,21.8,18.5,44666,east_south_central,31.402627,-85.988207
colbert,al,129.7,46.4,100.7,75.9,26.2,16.3,40032,east_south_central,34.700434,-87.804984
conecuh,al,159.9,52.2,135.2,73.5,19.3,30.5,27196,east_south_central,31.429267,-86.993681
covington,al,102.6,51.1,103.2,83,21.6,19.2,35187,east_south_central,31.248493,-86.451248
crenshaw,al,109.5,53.8,128.9,61.5,22.5,22.2,34105,east_south_central,31.731486,-86.313548
cullman,al,115.2,40.8,94.4,69.6,32.3,16.4,40142,east_south_central,34.131941,-86.867619
dale,al,112.9,35.4,145,76.7,20.9,20.1,41805,east_south_central,31.431819,-85.611032
dallas,al,134,62.4,213.6,76.2,14.4,31.3,27524,east_south_central,32.325975,-87.106479
dekalb,al,84.7,36.7,127.3,60.8,15.4,20,36713,east_south_central,34.459773,-85.804141
elmore,al,121.8,45.3,108,78.1,31.6,13.4,51650,east_south_central,32.596648,-86.149147
escambia,al,112.1,43.2,121.2,75.5,15,27.8,33455,east_south_central,31.126123,-87.16162
etowah,al,101.8,44.2,142.3,81.9,21.3,19.6,38587,east_south_central,34.045254,-86.034762
fayette,al,113.2,58.9,115.9,77.3,24,20.7,35661,east_south_central,33.721206,-87.738862
franklin,al,118,45.3,85,72.4,20.5,23.1,33332,east_south_central,34.441671,-87.843812
geneva,al,105,40.3,120.6,90.3,31.1,23.6,35378,east_south_central,31.095017,-85.838985
henry,al,100.1,39.2,157.5,66.5,27.2,18.2,41590,east_south_central,31.514694,-85.241406
houston,al,109,45.9,144.8,70.8,23.9,18.1,39636,east_south_central,31.153184,-85.30252
jackson,al,103.9,45.4,108.3,80.9,20.4,16.9,37204,east_south_central,34.779415,-85.999301
jefferson,al,130.5,43.5,160.1,65.1,17.9,18.9,45024,east_south_central,33.554314,-86.89649
lamar,al,137.8,57.4,145.4,80.4,18.1,23,36475,east_south_central,33.779206,-88.096899
lauderdale,al,99,39.8,114.1,69.3,29,17.1,43586,east_south_central,34.901372,-87.653998
lawrence,al,102,48,125.8,88.1,25.7,17.4,40713,east_south_central,34.521651,-87.311045
lee,al,116.8,34.9,136.3,59.4,12.9,19.8,44647,east_south_central,32.601136,-85.355563
limestone,al,117.1,37.6,150,73.4,19.1,15.9,50148,east_south_central,34.810076,-86.98137
madison,al,125.9,38.7,122.1,64.8,19.1,13.9,58258,east_south_central,34.76309,-86.550207
marion,al,115.2,46.8,110.6,74.2,19.7,20.8,34162,east_south_central,34.13655,-87.887138
marshall,al,84.6,41.7,106,79.4,23,18.1,38399,east_south_central,34.366962,-86.306637
mobile,al,120.2,49.2,135.2,75.4,20,20.3,42278,east_south_central,30.685147,-88.19753
montgomery,al,125.9,47.9,140.8,61,19,22.1,44013,east_south_central,32.220258,-86.207614
morgan,al,113.2,44.8,154.4,80.4,24.6,17.4,44079,east_south_central,34.453475,-86.852928
pickens,al,160.3,39,150.6,65.6,12.9,23.8,32314,east_south_central,33.280877,-88.088693
pike,al,122.7,36,160.8,61.8,28.8,25.3,35944,east_south_central,31.802715,-85.940921
randolph,al,112.4,45,155.4,75.5,15,23.4,35121,east_south_central,33.293787,-85.45907
russell,al,137.1,51.3,158.8,78.7,15.5,23.9,35762,east_south_central,32.28838,-85.184963
shelby,al,130.4,37.8,146.2,57.1,27.4,8.3,68718,east_south_central,33.264278,-86.660648
st. clair,al,109.1,39.8,120.4,74.7,21.5,14,52437,east_south_central,33.715703,-86.314688
talladega,al,105.7,49.3,137.6,74,18.3,19.8,38505,east_south_central,33.380057,-86.165907
tallapoosa,al,107.3,40.2,132.4,70.5,22.1,22.2,37747,east_south_central,32.862405,-85.797502
tuscaloosa,al,135.5,42,160.3,72.3,14.9,17.2,45959,east_south_central,33.28955,-87.52503
walker,al,103.6,42.4,139.7,98.3,22.3,22,37193,east_south_central,33.803335,-87.297357
washington,al,116.4,54.1,121.1,74.8,18.8,19.7,41115,east_south_central,31.407604,-88.207877
winston,al,96.1,50.1,101.3,90.8,21.6,21.9,33578,east_south_central,34.149225,-87.373683
ashley,ar,102.1,62.4,144.7,77,12.3,21.9,36479,west_south_central,33.191222,-91.768449
baxter,ar,116,38.6,122,85.6,23.9,15.6,36082,west_south_central,36.287189,-92.336971
benton,ar,115.9,40.4,124.5,56.4,23.9,11.7,56518,west_south_central,36.338723,-94.256187
boone,ar,95.2,44.6,124.1,67.7,24.9,17.2,38410,west_south_central,36.308599,-93.091563
carroll,ar,113.6,37.8,101.5,59.1,17.6,22.2,34109,west_south_central,36.341028,-93.53825
cleburne,ar,112,43,151.2,83.6,16.8,16.3,41612,west_south_central,35.53811,-92.026736
conway,ar,116.3,37.8,128,75,17,21.1,38145,west_south_central,35.262215,-92.701315
craighead,ar,99.1,39.9,85,74.6,16.7,20,41608,west_south_central,35.830789,-90.632841
crawford,ar,119.7,46.5,111.2,79.1,23.9,19.2,39384,west_south_central,35.589091,-94.24286
crittenden,ar,95.4,44.6,68.9,75.6,6.5,23.6,37726,west_south_central,35.207942,-90.308859
cross,ar,95.4,69.5,91.2,77.5,23.9,20.6,35438,west_south_central,35.295726,-90.771227
faulkner,ar,118,41.6,143.2,75.9,16.8,14.9,49936,west_south_central,35.146979,-92.332044
franklin,ar,86.3,34.4,93,77.1,15.5,20.7,38874,west_south_central,35.512351,-93.890619
fulton,ar,85.5,45.9,117.9,64.7,17.4,22.9,33439,west_south_central,36.38167,-91.818237
garland,ar,115.4,35.3,135.8,80.6,19.7,22.1,39057,west_south_central,34.576686,-93.150425
grant,ar,112.7,62.5,136.7,96.1,19.7,14.2,47089,west_south_central,34.290018,-92.423583
greene,ar,99.8,42.2,90.2,89.2,12,17.7,40840,west_south_central,36.117698,-90.559072
hot spring,ar,92.9,44.6,123.7,94.2,18.2,18.5,39927,west_south_central,34.317634,-92.946006
independence,ar,94.8,43.5,135.4,82.3,19.6,18.4,37761,west_south_central,35.74158,-91.569724
izard,ar,123,40.9,128.2,55.9,17.6,20.8,33308,west_south_central,36.094875,-91.913417
jackson,ar,91.3,61.3,127.5,104.4,21.5,27.5,32923,west_south_central,35.599231,-91.214571
jefferson,ar,119.1,42.4,182.3,97.5,12.1,25.8,36169,west_south_central,34.268785,-91.931515
johnson,ar,108.3,38,62.1,97.2,16.5,23.4,33634,west_south_central,35.570055,-93.45991
lawrence,ar,96.4,49.8,75.6,102.7,15.2,20.4,34740,west_south_central,36.041247,-91.107075
logan,ar,90,36.9,124.8,87,14.3,18.7,34090,west_south_central,35.215272,-93.716306
lonoke,ar,115,42.2,159.3,91.9,18.6,12.6,55648,west_south_central,34.75427,-91.888668
madison,ar,87,38.9,96.8,67.8,21.4,20.2,36358,west_south_central,36.010965,-93.724563
marion,ar,118.7,31.5,132.1,82.7,28.5,19,34217,west_south_central,36.268347,-92.68422
miller,ar,104.5,47.6,97.3,81.2,12.1,21.4,40005,west_south_central,33.312147,-93.891561
mississippi,ar,91.6,60,92.3,73.6,12.2,25.6,34285,west_south_central,35.763902,-90.054166
pike,ar,89.3,39,114.2,87.8,26.3,21.9,35592,west_south_central,34.163498,-93.656342
poinsett,ar,99.7,49.1,85.3,114,12,24.7,34113,west_south_central,35.574032,-90.66294
polk,ar,93.6,38.7,74.6,67.1,14.8,24.4,31818,west_south_central,34.485843,-94.228069
pope,ar,106.3,43.8,134.2,86.3,17,20,39704,west_south_central,35.447633,-93.03416
pulaski,ar,129.6,38.8,173.7,68,20.4,17.3,46526,west_south_central,34.769932,-92.311799
randolph,ar,99.1,48.3,78.1,83.9,16.9,22.6,33148,west_south_central,36.341483,-91.027717
saline,ar,118.7,37.2,133.6,73.9,18.7,10.3,54921,west_south_central,34.646618,-92.676573
sebastian,ar,111.6,42.8,114.6,78.2,18.5,22.1,41685,west_south_central,35.199717,-94.274141
sharp,ar,126.8,47.8,97.9,89.3,18.9,22.8,31224,west_south_central,36.161157,-91.479864
union,ar,121,46,177.3,89,14.6,21,38132,west_south_central,33.171363,-92.597288
van buren,ar,127.1,36.8,108.9,65.1,16.3,18.9,35111,west_south_central,35.580651,-92.515703
washington,ar,119.4,39.5,125.3,67.1,23.2,20.9,43302,west_south_central,35.979067,-94.215579
white,ar,107,52.3,145.3,91.2,18.3,17.2,43363,west_south_central,35.256274,-91.745551
yell,ar,102.6,48.5,121.2,88.1,19.2,19.7,34679,west_south_central,35.002597,-93.411249
apache,az,56.4,22.4,72.6,22.9,4.5,38.7,30252,mountain,35.395616,-109.488846
cochise,az,90.1,38.1,62.9,46.9,15.9,18.8,45294,mountain,31.879565,-109.751141
coconino,az,98.5,28,83.4,36.7,21.7,23.2,48732,mountain,35.838729,-111.770512
gila,az,81.8,32,54.5,54.3,18,22.6,39868,mountain,33.799752,-110.811737
graham,az,118.5,47.4,56.9,45.5,14,21.6,43497,mountain,32.932716,-109.887438
la paz,az,69.3,32.3,73,54.4,9.7,23.2,33994,mountain,33.729264,-113.981338
maricopa,az,118.9,35.2,91.2,52.2,19.3,17.6,52066,mountain,33.348834,-112.491233
mohave,az,110.8,45.1,83.8,76.6,14.3,21.3,38560,mountain,35.70406,-113.757909
navajo,az,83.7,29.4,78.8,39.6,11.9,31.8,37182,mountain,35.399539,-110.321403
pima,az,107.1,34.8,76,50.9,22.1,19.3,43926,mountain,32.097379,-111.789949
pinal,az,86.7,30.2,78,45.5,14.7,16.7,49887,mountain,32.904309,-111.344714
santa cruz,az,70.8,35.7,54.5,36.1,9.5,22.7,35753,mountain,31.526001,-110.846571
yavapai,az,118.1,31.7,85.5,51.9,17.4,16.4,40486,mountain,34.599881,-112.553864
yuma,az,98.6,31.2,60.8,48,8,19.2,40498,mountain,32.769404,-113.905564
alameda,ca,121.4,36.5,121.6,46,16.6,13,72128,pacific,37.650547,-121.917885
amador,ca,149.8,38,114,58.7,27.2,14.3,52357,pacific,38.44639,-120.651116
butte,ca,141.5,40.8,128.9,61.4,27.2,21.4,42395,pacific,39.666929,-121.600672
calaveras,ca,101.5,37.8,110.6,52.3,38.9,15,52598,pacific,38.204606,-120.554132
colusa,ca,113.5,35.8,98.3,56,16.7,13,48897,pacific,39.177573,-122.237028
contra costa,ca,129.5,41.5,136.9,49.2,29.4,10.8,78909,pacific,37.923419,-121.951212
del norte,ca,112.7,35.9,99.8,78.4,11.8,23.7,38663,pacific,41.744957,-123.957814
el dorado,ca,135.8,38.2,119.3,50,35.2,11.4,63002,pacific,38.778738,-120.524647
fresno,ca,114.1,36.1,109.5,50.8,15.9,28.6,43741,pacific,36.758179,-119.64932
glenn,ca,133,39.8,109,61.2,20.2,19.1,42129,pacific,39.598405,-122.392207
humboldt,ca,111,42.6,111.7,56.4,28.5,21.5,40882,pacific,40.70501,-123.915819
imperial,ca,100.7,33.7,127.1,44.3,7.9,22.7,40106,pacific,33.039506,-115.36532
inyo,ca,141,32.7,137.8,45.7,16,15.7,45784,pacific,36.511127,-117.41079
kern,ca,107.6,36.5,108.9,55.7,15.5,22.7,46688,pacific,35.342849,-118.7299
kings,ca,103.7,37.6,104,48.8,15.6,21.8,45794,pacific,36.075361,-119.815502
lake,ca,109.5,44.8,91.1,73.7,27.7,23.3,36973,pacific,39.099645,-122.753184
lassen,ca,91.6,29.6,94.4,60.9,15.1,19.1,50487,pacific,40.67359,-120.594333
los angeles,ca,116.1,39.4,113.8,39.9,13.2,19,54443,pacific,34.191753,-118.265135
madera,ca,104.1,35.5,110.8,51.8,19,23.4,41223,pacific,37.218031,-119.762648
marin,ca,137.5,35.8,136.7,41.6,46.1,8.7,94347,pacific,38.055183,-122.748859
mariposa,ca,111.6,36,107.2,54.6,28.5,16.4,45251,pacific,37.581522,-119.905517
mendocino,ca,116.7,38.6,110.6,52.2,27.2,20.9,42001,pacific,39.433624,-123.431554
merced,ca,108.5,37.9,104.3,56.9,14.6,24.8,41003,pacific,37.191857,-120.717669
modoc,ca,118.7,28.1,85.1,43.7,22,20,37055,pacific,41.589848,-120.724967
monterey,ca,115.3,29.4,141,42.6,21.7,17.5,55411,pacific,36.239774,-121.308902
napa,ca,138.5,40.2,134.3,53.3,31.4,9.7,68619,pacific,38.506474,-122.330533
nevada,ca,130.8,31.8,116.7,47.3,30.1,12.8,55246,pacific,39.30137,-120.768752
orange,ca,123.4,35.8,114.3,44.1,25.7,13.5,73827,pacific,33.676913,-117.776146
placer,ca,140.7,36.5,129.9,49.6,35.7,8.3,73643,pacific,39.063427,-120.717652
plumas,ca,107.7,34.2,115.4,44.2,26.5,15.7,47645,pacific,40.004682,-120.838598
riverside,ca,115.3,39.4,120,47.2,22,17.4,53909,pacific,33.74368,-115.993846
sacramento,ca,132.5,41.9,122.7,56.9,20.6,18.9,52980,pacific,38.449315,-121.344243
san benito,ca,113.2,33.8,157.5,40.2,18.4,12.7,66780,pacific,36.605706,-121.074996
san bernardino,ca,114,43,130.2,49.5,16.8,19.2,52112,pacific,34.841438,-116.178462
san diego,ca,128.3,37.2,115.8,49,26.9,15.3,61365,pacific,33.028203,-116.770207
san francisco,ca,121.6,40.4,105.1,49,19.2,13.8,76933,pacific,37.759715,-122.693976
san joaquin,ca,112.3,39.1,130.6,56.8,14.8,19.8,51219,pacific,37.934777,-121.271447
san luis obispo,ca,138.2,35,114.2,46.9,44.2,15,57743,pacific,35.387418,-120.452197
san mateo,ca,135.9,36.6,129.7,45.3,24.1,8,91061,pacific,37.43621,-122.355663
santa barbara,ca,129.5,34.5,111,42.1,33.4,16.2,60803,pacific,35.014583,-119.884478
santa clara,ca,119.6,36.6,131.9,41.1,20.7,10.5,91843,pacific,37.232484,-121.696278
santa cruz,ca,136,31.3,141.2,37.6,34.2,14.9,65282,pacific,37.021606,-122.009787
shasta,ca,134.3,37.1,122.8,62.5,39,19.7,41236,pacific,40.763767,-122.040522
siskiyou,ca,107.9,33.9,109.6,60.5,21,20.4,37108,pacific,41.59265,-122.540374
solano,ca,131.1,40.5,141.4,58.1,21.5,12.9,63398,pacific,38.266919,-121.940007
sonoma,ca,132.3,40.3,112.9,49.5,38.2,12.4,61020,pacific,38.525293,-122.922545
stanislaus,ca,117.9,42.8,104.8,57.4,20.8,21.8,47808,pacific,37.559145,-120.997685
sutter,ca,117.8,31.7,99.9,56.3,23,17.2,47903,pacific,39.034523,-121.694842
tehama,ca,117.2,40.6,119.4,65.2,31.7,17.9,43459,pacific,40.125736,-122.233885
trinity,ca,118.4,29.7,92.1,66.6,30.3,22.1,35708,pacific,40.650694,-123.112628
tulare,ca,106,36.8,104.6,47.9,15.4,29.6,39657,pacific,36.220157,-118.800473
tuolumne,ca,132.1,39.6,104.6,58,39.3,14.6,50774,pacific,38.027601,-119.954753
ventura,ca,131.8,36.6,116.4,41.5,27.3,12,76513,pacific,34.325358,-119.147678
yolo,ca,132.9,34,109.8,42.3,25.3,17.8,55011,pacific,38.686646,-121.90162
yuba,ca,112.6,39.5,112.3,68.1,23.9,20.6,41824,pacific,39.269008,-121.351262
adams,co,115.9,40.1,112.5,52.6,16.4,13.2,54876,mountain,39.87364,-104.337801
arapahoe,co,133.3,34.2,118.7,47.5,19.8,12.3,61092,mountain,39.650038,-104.335247
archuleta,co,131.6,30.4,111.7,31.7,29.4,15.1,44417,mountain,37.193596,-107.048329
boulder,co,135.6,30.1,121.3,35.5,23.8,13.5,71405,mountain,40.093574,-105.358571
broomfield,co,116.4,27.8,121.8,48.4,26.6,6.4,79117,mountain,39.955369,-105.047567
chaffee,co,123.6,24.7,106.8,36.9,41.4,13,48012,mountain,38.746903,-106.194067
delta,co,97.1,28.1,105,46.3,17.8,15.1,41730,mountain,38.861374,-107.862877
denver,co,131.7,37,129.2,48.5,16.8,18.7,51156,mountain,39.775594,-104.867427
douglas,co,133.2,33.1,122.4,37.1,29.8,3.6,105192,mountain,39.329724,-104.929561
eagle,co,115.6,26.6,118.4,28.3,24.8,9.5,78517,mountain,39.627826,-106.695299
el paso,co,122.6,35.6,141.1,50.3,28.4,11.4,57072,mountain,38.832089,-104.525585
elbert,co,117.7,34.2,110.4,47.5,15.6,6.7,80972,mountain,39.28656,-104.135891
fremont,co,121,45.1,128,56.4,27.3,19.7,41412,mountain,38.472972,-105.439657
garfield,co,122.9,27,99.3,43.2,33.6,12.4,57364,mountain,39.599307,-107.903956
grand,co,92.5,23,73,47.5,20.3,11,57312,mountain,40.102615,-106.118358
jefferson,co,128.4,33.3,136.7,43.7,25.3,9.1,68161,mountain,39.585248,-105.251574
la plata,co,122.2,29.2,146.1,34.4,28.6,12.4,58675,mountain,37.286558,-107.843336
larimer,co,129.3,30.6,108.5,39.7,17.2,13.8,59337,mountain,40.666417,-105.461144
logan,co,112.9,40.5,94.6,36.4,26.1,16.9,43561,mountain,40.724669,-103.110096
mesa,co,108.8,33.5,112.2,56.1,19.5,15.4,48108,mountain,39.01829,-108.46644
montezuma,co,121.4,30.9,130,40.2,19.3,19.1,43655,mountain,37.338425,-108.596662
montrose,co,103.7,29.7,91.4,49.6,22.1,15.1,43946,mountain,38.402156,-108.269451
morgan,co,109.8,38.8,98.9,49.5,17,13.5,46332,mountain,40.262744,-103.809822
otero,co,101.4,49.7,107.6,40.5,24.6,22.5,36811,mountain,37.902702,-103.716446
park,co,105.2,39.1,122.3,35.8,30.4,10.3,57510,mountain,39.119303,-105.717175
pueblo,co,122.9,40.4,110.9,49.8,16.4,20.1,41352,mountain,38.17342,-104.512846
rio grande,co,104,49.2,124.3,29.2,23.1,17.9,39834,mountain,37.582523,-106.38321
routt,co,123.5,31.4,128.7,31.5,24.5,8.9,63763,mountain,40.485068,-106.991193
summit,co,81.2,16.7,79.7,14.8,21.1,9.3,63236,mountain,39.634171,-106.116379
teller,co,150.8,34.5,120.9,41.1,33.9,8.4,62725,mountain,38.882172,-105.161826
weld,co,115.3,35.3,97.1,45.7,18.2,13.2,58404,mountain,40.554828,-104.392533
fairfield,ct,145.1,38.1,141.3,54.9,21.6,9.6,81816,new_england,41.22496,-73.371205
hartford,ct,133.4,41.4,135.7,62,21.5,12.1,63491,new_england,41.806422,-72.732844
litchfield,ct,125.7,40.2,140.4,62.5,25.3,7.2,70519,new_england,41.792495,-73.245324
middlesex,ct,148.2,38.3,125.9,65.7,27.1,7.3,75335,new_england,41.435381,-72.523119
new haven,ct,136.4,42,126.9,70.2,18.2,12.8,58672,new_england,41.348823,-72.89986
new london,ct,137.6,38.8,109.3,68.7,24,9.4,62638,new_england,41.466779,-72.106497
tolland,ct,137.7,39.2,117.9,62.7,25.4,6.4,73660,new_england,41.855009,-72.336489
windham,ct,127.4,42.2,84.6,65,18.8,13,55948,new_england,41.830029,-71.987488
district of columbia,dc,143,44,169.1,59,8.3,18.8,66326,south_atlantic,38.904774,-77.016291
kent,de,129,40.7,169.4,79.2,25,13.5,53811,south_atlantic,39.095954,-75.504614
new castle,de,132.4,37.5,152.3,67.3,28.9,11.9,63033,south_atlantic,39.578327,-75.638982
sussex,de,125.4,38.3,137.9,74.2,35.4,14.8,50207,south_atlantic,38.683297,-75.339542
alachua,fl,135,39.8,107.9,67.8,24.8,25.7,39614,south_atlantic,29.674755,-82.357701
baker,fl,106.7,36.5,127.9,99.5,13.8,18.8,46505,south_atlantic,30.331071,-82.284587
bay,fl,127.9,37.1,157.6,88.4,21.4,18,45249,south_atlantic,30.237647,-85.632623
bradford,fl,103.1,37.7,103.6,82.1,23.2,21.8,40668,south_atlantic,29.94996,-82.168778
brevard,fl,115.8,38.3,102.1,74.2,28.2,15,46677,south_atlantic,28.300314,-80.701205
broward,fl,121.3,40,117.7,53.5,18.2,15.2,50343,south_atlantic,26.151856,-80.455886
charlotte,fl,103.3,33.9,93.5,62.3,25.4,14.4,43611,south_atlantic,26.899846,-81.950308
citrus,fl,112.8,39,111,79.7,24.4,17.3,39285,south_atlantic,28.84757,-82.520107
clay,fl,120.7,39.7,117.1,79.2,22.4,9.9,57991,south_atlantic,29.983068,-81.857884
collier,fl,90.5,25.7,86.8,43.3,22,13.4,55584,south_atlantic,26.099239,-81.380973
columbia,fl,108.9,39.6,111.9,88.2,21.9,18.8,41722,south_atlantic,30.22424,-82.621539
desoto,fl,101.4,33.1,99.8,57.7,25.4,33.9,33198,south_atlantic,27.18632,-81.809301
dixie,fl,114.5,41.9,68.8,100,20.5,27.1,31649,south_atlantic,29.581242,-83.187032
duval,fl,132.8,44,145.7,78.1,20.3,17.1,47876,south_atlantic,30.335441,-81.648009
escambia,fl,122.6,38.8,109.8,78.4,18.9,17.6,42742,south_atlantic,30.614396,-87.341364
flagler,fl,121.8,36.4,93.3,67.7,25.7,14.5,47872,south_atlantic,29.47115,-81.292995
gadsden,fl,97.3,33.6,112.8,66.4,11.2,25.3,34348,south_atlantic,30.579469,-84.613599
gilchrist,fl,114.7,28,61.9,74.3,22.9,21.9,39854,south_atlantic,29.725823,-82.800367
hardee,fl,103.2,54.3,74.9,69,16.7,28.8,34884,south_atlantic,27.492698,-81.809926
hendry,fl,89,34.8,88.6,65.2,12.6,25.1,37085,south_atlantic,26.553489,-81.165901
hernando,fl,105.7,34.5,101.2,74.9,24.8,15.6,39280,south_atlantic,28.556171,-82.468489
highlands,fl,105.4,36.5,74,73.3,26.8,20.1,34054,south_atlantic,27.343404,-81.340971
hillsborough,fl,121.8,42.7,129.5,69.7,20.8,16.8,49510,south_atlantic,27.906229,-82.346921
indian river,fl,103.1,35.7,98.2,67,32.2,14.1,44326,south_atlantic,27.696391,-80.57409
jackson,fl,61.6,34.3,67.4,48.4,10.2,26.3,36332,south_atlantic,30.795391,-85.21546
lake,fl,117.7,43.6,129.5,76,22.3,14.5,44244,south_atlantic,28.761471,-81.711299
lee,fl,109.8,32.3,101.2,59.2,22.1,16.3,46605,south_atlantic,26.57569,-81.915453
leon,fl,117,32.9,117.4,54.8,15.4,21.7,46975,south_atlantic,30.458039,-84.277881
levy,fl,114.2,47.3,80.1,103.5,22.3,23.6,33193,south_atlantic,29.282206,-82.788613
manatee,fl,110.2,34.3,83.8,59,25.7,16,48066,south_atlantic,27.477523,-82.35754
marion,fl,127.4,43.1,132.1,82,20.5,19.6,38783,south_atlantic,29.210202,-82.056676
martin,fl,128.2,29.8,116.3,59.6,24.6,13.5,51159,south_atlantic,27.081621,-80.398471
miami-dade,fl,105,42.8,125.9,44.4,8.4,21,41840,south_atlantic,25.608968,-80.498667
monroe,fl,107.7,37.1,72.7,54.6,28.1,16.8,50380,south_atlantic,25.04678,-81.185692
nassau,fl,137,37.6,109.4,81.2,31.6,13.4,56987,south_atlantic,30.610578,-81.771418
okaloosa,fl,113.3,37.8,91.7,71.8,27.1,13.4,54265,south_atlantic,30.66503,-86.592175
okeechobee,fl,110.3,50.9,73.8,93.3,15.7,25.7,35954,south_atlantic,27.386292,-80.888576
orange,fl,114.3,42.3,122.1,57.6,17.3,18.2,46675,south_atlantic,28.514423,-81.323478
osceola,fl,105.1,37,114,54.7,16.9,20.7,41592,south_atlantic,28.062665,-81.1495
palm beach,fl,118.9,32.9,113.2,54.1,21.7,15,51768,south_atlantic,26.647568,-80.436508
pasco,fl,112.6,40.5,111.1,75.9,25.2,13.5,45454,south_atlantic,28.30674,-82.438868
pinellas,fl,120.4,35.8,93.3,68.9,21.2,15.1,43773,south_atlantic,27.902676,-82.739554
polk,fl,120.9,43,124.9,74.4,28.5,19.3,42447,south_atlantic,27.948866,-81.697681
putnam,fl,116.7,41.7,110.6,97.2,19.9,26.9,32852,south_atlantic,29.608635,-81.744304
santa rosa,fl,112.2,32.8,103.4,74.9,22.9,13.8,54876,south_atlantic,30.692904,-87.018449
sarasota,fl,124.9,32.9,94.9,57.6,30.7,13,48717,south_atlantic,27.182478,-82.364974
seminole,fl,117,37.4,107.2,54.2,21.6,12.9,55195,south_atlantic,28.716977,-81.236306
st. johns,fl,127.1,30.8,114.2,65.2,31,9.6,66312,south_atlantic,29.912184,-81.409887
st. lucie,fl,104.7,34.6,98.7,64.5,18.6,19,42825,south_atlantic,27.380866,-80.445603
sumter,fl,110.6,32.1,117.5,65.3,21.6,12,52670,south_atlantic,28.704822,-82.080995
suwannee,fl,103,38.5,92.6,87.2,20.6,24.6,35666,south_atlantic,30.195612,-82.991492
union,fl,195.5,118.8,237.4,203.7,33,23.8,40841,south_atlantic,30.043839,-82.371442
volusia,fl,110.7,37,79.8,70.8,24.7,16.6,40908,south_atlantic,29.063452,-81.148572
wakulla,fl,127.8,42.7,105.7,95.9,15,15.9,47430,south_atlantic,30.147773,-84.375607
walton,fl,109,35.9,74.9,74.3,21.6,19.3,45357,south_atlantic,30.618469,-86.171516
washington,fl,72.6,33.6,70.2,74.7,19.3,23.4,35671,south_atlantic,30.610592,-85.665329
baldwin,ga,97.9,46.9,127.6,73.5,11,31.8,35815,south_atlantic,33.069276,-83.249591
banks,ga,81.2,57.9,105.6,65.2,39.1,17.4,42495,south_atlantic,34.354134,-83.497372
barrow,ga,105,35,115.9,89.6,26.2,14.4,54668,south_atlantic,33.993196,-83.712755
bartow,ga,124.2,52.3,115.5,91.3,23.1,19.1,46330,south_atlantic,34.237855,-84.840499
bibb,ga,124.7,47.8,167.8,79.4,10.8,29.2,36816,south_atlantic,32.806498,-83.69742
brantley,ga,73.5,42.2,76.6,87.8,20.1,22.5,36758,south_atlantic,31.196876,-81.981895
bryan,ga,111.5,52.4,111.8,84.3,28.2,10.1,66066,south_atlantic,32.013224,-81.442472
bulloch,ga,113.2,31.9,73.7,78.6,18.2,30.6,36484,south_atlantic,32.396814,-81.743182
burke,ga,120.3,56.9,123.7,85.9,13.1,32,32675,south_atlantic,33.061154,-82.000781
butts,ga,104.8,39,161.4,95.7,18.6,22,43330,south_atlantic,33.287851,-83.95717
camden,ga,119,42.5,128.7,67.4,19.1,15.6,49098,south_atlantic,30.92249,-81.636389
carroll,ga,115.8,48.9,117.5,83.9,27.9,17.9,45493,south_atlantic,33.582798,-85.079763
catoosa,ga,91.5,29.7,89.5,65.6,20.5,16,50847,south_atlantic,34.903657,-85.138247
chatham,ga,130,42,136.1,65.2,24,20.3,45254,south_atlantic,31.974022,-81.092425
chattooga,ga,86,52.5,132.1,101.5,17.5,28.3,34440,south_atlantic,34.475015,-85.345291
cherokee,ga,126.9,34.8,138.6,73.2,46,11,67686,south_atlantic,34.243929,-84.476203
clarke,ga,129.7,40.5,170.7,61.8,21.1,37.2,32864,south_atlantic,33.951168,-83.367332
clayton,ga,128.2,44.6,156.3,65.1,10.2,25.4,40606,south_atlantic,33.541901,-84.357654
cobb,ga,132.8,39,142.4,60.3,36.4,13.8,62866,south_atlantic,33.941463,-84.576673
coffee,ga,99.5,41.5,108.9,79.5,14.9,28.2,33615,south_atlantic,31.549272,-82.849201
colquitt,ga,111,43.2,133,89.5,11.5,25.9,33095,south_atlantic,31.18839,-83.768848
columbia,ga,119.5,35.8,112.1,61.4,23.2,8.3,72531,south_atlantic,33.544121,-82.264062
coweta,ga,111.6,38.3,118.8,65,29.9,13.7,61469,south_atlantic,33.353462,-84.763361
crisp,ga,98.7,46.7,115.2,72.3,15.9,30.7,30481,south_atlantic,31.922932,-83.768104
dawson,ga,121,37.7,98.7,74.1,40.1,15.2,52804,south_atlantic,34.444298,-84.170636
decatur,ga,109.9,44.8,139.9,70.4,12.6,26.6,34102,south_atlantic,30.878344,-84.57907
dekalb,ga,136.4,41.4,161.5,53.2,18.1,19.9,49894,south_atlantic,33.771529,-84.226408
dougherty,ga,122.4,47.1,197.6,73.4,11.1,31.3,31575,south_atlantic,31.533374,-84.216254
douglas,ga,117.7,45.7,133.6,81.1,20.1,17.9,51941,south_atlantic,33.701828,-84.767973
early,ga,106.8,45.4,184.2,61.5,24.5,27.4,32357,south_atlantic,31.322833,-84.903643
effingham,ga,131.3,50.6,90.6,85.2,29.7,11.8,61062,south_atlantic,32.36731,-81.34134
elbert,ga,103.1,52.2,134.3,73.4,18,23.4,34487,south_atlantic,34.116793,-82.840095
emanuel,ga,117.2,50.3,93.6,67.6,16.6,34.1,30348,south_atlantic,32.589762,-82.301708
fannin,ga,112.6,40.3,106,73.2,27.9,22.5,35673,south_atlantic,34.864098,-84.319857
fayette,ga,140.4,31.9,131.2,47.4,36,7.2,81368,south_atlantic,33.413943,-84.494191
floyd,ga,119.8,41.6,143,81.1,18.8,22.2,39381,south_atlantic,34.263163,-85.214279
forsyth,ga,132.2,41.3,132.8,60.6,50.7,7.7,87565,south_atlantic,34.225546,-84.125018
franklin,ga,131.8,56.6,123.8,81.4,28.7,20.9,40114,south_atlantic,34.375436,-83.229175
fulton,ga,135.3,39.7,170.4,54.5,27.7,18.2,55474,south_atlantic,33.790284,-84.466986
gilmer,ga,96.5,38.7,114.6,76.1,30.5,25.1,39323,south_atlantic,34.691178,-84.455627
glynn,ga,116.5,40.1,131.9,71.9,18.5,20.3,43533,south_atlantic,31.213242,-81.493698
gordon,ga,117.5,44,95.9,94.7,23.2,18.4,42291,south_atlantic,34.503359,-84.875753
grady,ga,100.6,56.3,101.4,74,11.7,25.7,35212,south_atlantic,30.874673,-84.234426
greene,ga,146.1,39.2,121.4,69.9,31.2,23.1,42842,south_atlantic,33.578784,-83.166655
gwinnett,ga,129.1,37.8,136.9,51.8,27.5,13.7,59081,south_atlantic,33.961729,-84.023624
habersham,ga,120.3,49,132.3,64.4,32.2,21.2,40530,south_atlantic,34.631021,-83.531116
hall,ga,117.8,40.5,132.6,61.2,40.1,20.8,46986,south_atlantic,34.316889,-83.819681
haralson,ga,94.6,49.5,108.7,94.4,32.2,22.2,39548,south_atlantic,33.794233,-85.211026
harris,ga,118.9,39.2,148.5,62,25.4,10.6,60977,south_atlantic,32.736004,-84.908988
hart,ga,98.8,45.9,97.5,69,24.3,20.8,40225,south_atlantic,34.350898,-82.964248
henry,ga,129.3,42,176.6,60.3,24.2,11.6,60087,south_atlantic,33.452986,-84.154184
houston,ga,113.5,48.5,118.3,73.2,16.7,15.4,52297,south_atlantic,32.459007,-83.666243
jackson,ga,131.7,48.5,130.9,78.4,33.3,14,52385,south_atlantic,34.133883,-83.566348
jasper,ga,142.8,41.2,127.5,78.7,29.9,19.7,42343,south_atlantic,33.316434,-83.68809
jefferson,ga,112.8,56.3,145.5,62.8,16.9,27.5,29152,south_atlantic,33.054844,-82.418151
lamar,ga,130.1,46.4,165.3,86.5,18.4,19.7,40915,south_atlantic,33.076536,-84.139463
laurens,ga,118.2,42.9,121.9,69.5,13.6,29.1,33974,south_atlantic,32.463657,-82.922238
lee,ga,116.5,53,160.8,83.2,29.7,11.6,63272,south_atlantic,31.779507,-84.141134
liberty,ga,98.3,47.3,147.5,76.8,12,20,40175,south_atlantic,31.807229,-81.456256
lowndes,ga,125.3,40.8,206.4,65.3,19.7,26.3,37138,south_atlantic,30.833857,-83.267708
lumpkin,ga,116.1,37.2,122.3,72.3,44.9,21.5,42919,south_atlantic,34.572186,-84.00265
madison,ga,119.9,59.5,116.8,90.4,27.7,18.7,43611,south_atlantic,34.127784,-83.209037
mcduffie,ga,121.4,45.5,153.8,69.5,13.5,23.7,37328,south_atlantic,33.482855,-82.481371
mcintosh,ga,78.7,30.8,121.6,55,24.5,23.1,36346,south_atlantic,31.483806,-81.375566
meriwether,ga,126.2,65.8,129,66.8,16.1,27.2,34962,south_atlantic,33.040656,-84.688312
monroe,ga,109.4,38.5,160.9,72.7,12.7,13.9,54793,south_atlantic,33.013897,-83.918682
morgan,ga,135.9,52.6,145.6,65.5,33,17.1,48337,south_atlantic,33.590825,-83.492382
murray,ga,97.7,36.3,82,103.1,19.9,21.9,40343,south_atlantic,34.788447,-84.748094
muscogee,ga,136.3,48.1,171.6,70.3,21.3,22.9,40414,south_atlantic,32.509961,-84.877041
newton,ga,121.1,45.7,154.6,78.9,28,15,50862,south_atlantic,33.555049,-83.850187
oconee,ga,134.3,33.7,192.9,46.8,29.5,8.6,72478,south_atlantic,33.834939,-83.437054
oglethorpe,ga,112.8,50.2,122.1,75.4,21.4,17.6,44026,south_atlantic,33.880648,-83.080703
paulding,ga,123.1,44.2,118.5,77.7,26.7,11.6,60008,south_atlantic,33.920546,-84.867288
peach,ga,136.4,59,128.5,77.9,13.4,21.1,42602,south_atlantic,32.568778,-83.826878
pickens,ga,104,37.5,142.2,82.3,48.6,15.1,53332,south_atlantic,34.46432,-84.465639
pike,ga,94.6,49.5,156.7,75.6,23.7,13.8,52393,south_atlantic,33.092265,-84.389235
polk,ga,124.2,50.8,143.2,102,17.6,22.5,38730,south_atlantic,34.001784,-85.188153
putnam,ga,114.9,44.9,134,74.4,26.2,19,42934,south_atlantic,33.321767,-83.372841
rabun,ga,125.9,44.7,135.3,67.1,23.2,19.4,38114,south_atlantic,34.881682,-83.402137
richmond,ga,134.5,34.5,131.4,72.7,13.2,27.7,36069,south_atlantic,33.359635,-82.073549
rockdale,ga,127.5,37.8,158.3,60.7,21,16.8,50646,south_atlantic,33.654235,-84.026608
screven,ga,114.9,64.8,113.1,79.1,18.6,27.9,35087,south_atlantic,32.750587,-81.611935
spalding,ga,122.1,50.6,173.8,74.3,20,21.1,39068,south_atlantic,33.260869,-84.28416
stephens,ga,101.5,56.4,111.1,76.8,30.2,20.4,36318,south_atlantic,34.553944,-83.293433
sumter,ga,136.6,45.6,158.7,63.1,13.9,36.1,32474,south_atlantic,32.039969,-84.197041
tattnall,ga,124.8,56.1,109.7,100.8,14.2,28.3,35983,south_atlantic,32.045748,-82.058176
thomas,ga,115.6,39.5,144.9,74.5,11.8,20.4,38914,south_atlantic,30.863682,-83.919313
tift,ga,139.3,43.3,143,71.4,24.4,31.3,33902,south_atlantic,31.457438,-83.526594
toombs,ga,116.4,34.4,163.5,74,14.4,28.3,32311,south_atlantic,32.12172,-82.331293
towns,ga,125.5,34.2,178.2,62.4,51.6,18.1,39854,south_atlantic,34.916652,-83.737279
troup,ga,130.8,45.7,150.9,71.1,13.4,23.8,42044,south_atlantic,33.03351,-85.028337
union,ga,121.2,37,151.9,70.4,35.3,16.9,39677,south_atlantic,34.83401,-83.990756
upson,ga,111.2,51.4,160.8,87.8,18.2,22.3,34709,south_atlantic,32.88127,-84.299344
walker,ga,101.7,31.7,85.5,84.3,17.6,17.3,40512,south_atlantic,34.735659,-85.300985
walton,ga,113.1,40.4,138.2,67.9,32.2,14.2,54294,south_atlantic,33.781557,-83.733847
ware,ga,110.9,37.2,119.6,70.6,12.1,27.6,32211,south_atlantic,31.053632,-82.423676
washington,ga,124,48.1,168.8,68.2,12.6,26.5,36807,south_atlantic,32.969536,-82.795899
wayne,ga,114.1,47.1,106.1,76.2,14.6,25.3,38081,south_atlantic,31.551433,-81.916759
white,ga,129.1,40.6,107.7,69.8,52.8,19,41337,south_atlantic,34.64636,-83.747115
whitfield,ga,96.3,34,102.9,77.6,23.8,19.9,39946,south_atlantic,34.805612,-84.967221
worth,ga,111.8,49,142.7,70.8,23.7,23.1,36616,south_atlantic,31.551512,-83.850876
hawaii,hi,125.1,37.1,63.7,44.9,25.5,19.5,47377,pacific,19.602397,-155.522886
honolulu,hi,138.3,46,106.9,48.3,16.4,9.6,72649,pacific,24.053316,-165.802325
kauai,hi,113.6,41.4,110.7,45.2,17.6,11.8,55844,pacific,22.010213,-159.709858
maui,hi,132,45.2,72.1,43.2,36.8,10.7,62277,pacific,20.865832,-156.58774
allamakee,ia,111.8,45.7,130.4,39.9,28.3,13.9,44673,west_north_central,43.284284,-91.378092
appanoose,ia,80.6,57.2,86.3,78.5,22.9,17.2,37683,west_north_central,40.743163,-92.86861
benton,ia,127,34.9,92.3,67.5,32.1,8.8,59179,west_north_central,42.080186,-92.065691
black hawk,ia,122.1,40.4,132.4,72.5,26,16.7,46281,west_north_central,42.470096,-92.30882
boone,ia,99.6,30.9,118.8,61.3,20.7,11.3,52578,west_north_central,42.036549,-93.931671
bremer,ia,122.9,35.9,105.4,41.6,26.2,6.5,61665,west_north_central,42.774587,-92.318055
buchanan,ia,125.5,37.5,107.3,82.8,19.3,9.2,54383,west_north_central,42.470778,-91.837839
buena vista,ia,122.6,43.2,142.9,40.9,14.6,12.5,47514,west_north_central,42.735494,-95.151149
butler,ia,98.1,41.3,105.7,45.4,27.7,9.3,53920,west_north_central,42.731566,-92.790193
calhoun,ia,159.4,50.6,148.4,54.6,33.2,14,47351,west_north_central,42.385185,-94.640414
carroll,ia,94.8,45.7,120,60.8,26.3,9.5,51328,west_north_central,42.036238,-94.860559
cass,ia,94.1,64.2,128.7,73.2,21.2,14.8,45191,west_north_central,41.331488,-94.927827
cedar,ia,118.3,45.8,144.2,66.5,26.5,7.4,58530,west_north_central,41.772321,-91.132412
cerro gordo,ia,115.5,46.7,124.2,65.8,24.2,11.9,46063,west_north_central,43.081558,-93.260818
chickasaw,ia,97.9,44.1,124,52.9,23.7,10.6,50342,west_north_central,43.060041,-92.317664
clay,ia,143,43.7,141,57.8,21.6,10.7,51399,west_north_central,43.08258,-95.150919
clayton,ia,118.3,47.5,111.4,60.3,19.6,12,48626,west_north_central,42.844749,-91.341433
clinton,ia,116.3,50.1,106.2,64.1,30.8,13.9,49702,west_north_central,41.898036,-90.531972
crawford,ia,94.2,43.9,150.2,54.8,15.6,13,48555,west_north_central,42.037212,-95.381968
dallas,ia,138.9,31.7,112,61.6,20.4,6,79309,west_north_central,41.684886,-94.039737
delaware,ia,117.6,34.4,97.6,38.4,34,10.1,54587,west_north_central,42.471211,-91.36735
des moines,ia,132.6,44.9,124.8,86.7,28.1,12.3,42882,west_north_central,40.923183,-91.181471
dickinson,ia,136.3,51.8,130.8,59.6,35.3,8.7,58610,west_north_central,43.377985,-95.15083
dubuque,ia,132.4,38.6,131.9,59.4,37.1,12.8,51907,west_north_central,42.468822,-90.882522
emmet,ia,93.3,50.7,145.9,69.8,36.4,14.7,46892,west_north_central,43.378022,-94.67848
fayette,ia,115.7,54.8,118.8,59.9,20.5,13.9,44739,west_north_central,42.862592,-91.844321
floyd,ia,158.9,45.7,127.5,65.7,32.4,12.1,48964,west_north_central,43.059921,-92.789003
greene,ia,164,61.8,124.2,63.7,25.3,12.8,47936,west_north_central,42.036239,-94.396836
grundy,ia,125.7,43.3,138.8,48.7,30,6.9,61381,west_north_central,42.401865,-92.791418
hamilton,ia,92.2,45.9,136.4,64.7,24.5,10.1,50867,west_north_central,42.383772,-93.706809
hancock,ia,107.8,56.1,137.7,58.8,40.8,10.1,54835,west_north_central,43.081886,-93.734272
hardin,ia,133.9,46.8,147.6,58.5,21.8,11,51907,west_north_central,42.38388,-93.240402
harrison,ia,110.7,62.4,95.6,86.4,22.8,10.6,53764,west_north_central,41.682853,-95.816921
henry,ia,108.3,57.6,97.9,70.4,20.9,14.2,50084,west_north_central,40.987938,-91.544524
iowa,ia,127.8,44,125.2,47.5,43.1,10.1,58028,west_north_central,41.686323,-92.065524
jackson,ia,134.4,54.4,154,66.1,36.8,11.8,46180,west_north_central,42.171743,-90.574229
jasper,ia,133.2,48.1,105.2,72.4,14.6,9.8,55492,west_north_central,41.686039,-93.053765
jefferson,ia,106.4,45.7,96.2,49.5,15.3,16.1,41942,west_north_central,41.03176,-91.948877
johnson,ia,137.6,39.9,121.9,50.5,29.9,16,53204,west_north_central,41.671551,-91.588085
jones,ia,129.8,50.8,103,57.8,21.2,10.2,54749,west_north_central,42.12124,-91.131435
keokuk,ia,119.7,50.1,78.8,68.1,26.3,13.3,47626,west_north_central,41.336465,-92.178643
kossuth,ia,148.8,50.9,82,58,39.5,9.8,55972,west_north_central,43.20413,-94.20672
lee,ia,123.4,51,138.5,73.2,26.5,16.2,45307,west_north_central,40.641976,-91.479264
linn,ia,126.6,40.9,102.2,65.7,27.5,9.7,56503,west_north_central,42.078948,-91.598965
mahaska,ia,95,59.7,120.3,79.1,21.5,14,48978,west_north_central,41.335203,-92.640909
marion,ia,126.5,57.8,117.7,57.4,16.9,9.3,56883,west_north_central,41.334451,-93.099437
marshall,ia,100.4,48,114.8,65.8,24.2,13.4,51382,west_north_central,42.035849,-92.998771
mills,ia,110.8,45.3,114,73.1,27.7,10,56504,west_north_central,41.033452,-95.621327
mitchell,ia,103.2,47.5,121.6,48.2,44,10.2,53049,west_north_central,43.356412,-92.789031
monona,ia,121.3,52.1,110.6,58.3,33.2,12.5,41461,west_north_central,42.051666,-95.959923
muscatine,ia,121.9,51.4,139.4,62.8,27,12.7,54025,west_north_central,41.483922,-91.112756
o'brien,ia,101.5,44.5,123.1,53.2,26.1,9.4,57287,west_north_central,43.083753,-95.624878
page,ia,104.4,55,149.5,98,29.7,17.3,47438,west_north_central,40.739144,-95.150175
palo alto,ia,132.4,43.3,94.6,61.1,33.1,10.8,49536,west_north_central,43.082064,-94.678137
plymouth,ia,96.1,54.5,123.4,54.9,44.4,8.3,58113,west_north_central,42.737847,-96.214027
polk,ia,133.2,43.8,117.4,75.3,19.1,12.4,59388,west_north_central,41.685505,-93.573534
pottawattamie,ia,119.4,48.2,100.4,84.6,19.9,13.6,50570,west_north_central,41.336612,-95.542394
poweshiek,ia,112.7,52.6,102.4,43.4,16.6,12,50799,west_north_central,41.686442,-92.531468
scott,ia,124.9,42.9,120.1,72.7,26.7,14.2,54444,west_north_central,41.637098,-90.623243
shelby,ia,129.4,63.7,104,52.4,21,9.4,54740,west_north_central,41.685093,-95.310211
sioux,ia,125.9,35.8,121.1,43.1,31.2,8.2,61817,west_north_central,43.082617,-96.177883
story,ia,127.6,42.8,150.7,56,25.8,21.1,53782,west_north_central,42.036241,-93.465045
tama,ia,123.3,37.7,118.1,65.3,21.3,11.5,53844,west_north_central,42.079812,-92.532543
taylor,ia,143.8,50.8,96.2,57.9,43.8,14.1,45009,west_north_central,40.737432,-94.696415
union,ia,121.8,44.5,80,74.3,20,13.5,43357,west_north_central,41.02773,-94.242379
van buren,ia,101.4,49.4,56.7,75.4,46.2,16.2,43019,west_north_central,40.753229,-91.949987
wapello,ia,125.6,52.4,107.6,78.5,20.7,19.9,40629,west_north_central,41.030585,-92.40945
warren,ia,144.3,44.5,118.2,69.5,18.4,7,66328,west_north_central,41.334373,-93.561359
washington,ia,127.7,39.8,116.3,52.9,27.6,9.3,54480,west_north_central,41.335591,-91.717868
webster,ia,108.6,40.2,132.9,67.6,21,15.9,45202,west_north_central,42.427966,-94.181788
winnebago,ia,108.6,46.4,100.6,61.3,22.8,11.1,50383,west_north_central,43.377568,-93.734195
winneshiek,ia,116.1,41.7,130.1,36,29.2,10.9,53194,west_north_central,43.290675,-91.843707
woodbury,ia,109.5,46.8,131.7,71.5,25.2,16.5,45678,west_north_central,42.389729,-96.044795
wright,ia,125.2,51.6,99.4,56.1,24.9,10.6,49369,west_north_central,42.733119,-93.735146
ada,id,129,35.2,146.8,52.2,30.1,13.6,53420,mountain,43.451118,-116.241086
bannock,id,103.7,34.8,108.8,41,21.4,17.7,42665,mountain,42.668507,-112.224629
benewah,id,107.9,41.9,94.8,79,23.3,16.5,39530,mountain,47.217551,-116.658826
bingham,id,110,45.3,133.2,38.7,18.1,14.1,47721,mountain,43.216516,-112.398053
blaine,id,130.5,19.7,111.2,22.6,49.3,9.9,67936,mountain,43.412325,-113.980397
bonner,id,121,41.7,107.5,54.3,24.8,17,41797,mountain,48.299758,-116.600801
bonneville,id,103.7,34.2,138.1,35.7,28.3,12,50559,mountain,43.387732,-111.614925
canyon,id,106.7,38.5,138.1,56.1,26.1,20.1,42237,mountain,43.625134,-116.709293
cassia,id,113.8,18.8,103.8,34,20,15.3,44160,mountain,42.283919,-113.60035
clearwater,id,87.5,36,128.4,55.4,24.4,17.8,40068,mountain,46.673693,-115.656891
elmore,id,103.7,48.2,121.7,72.4,22.7,16.6,42680,mountain,43.3539,-115.469179
fremont,id,94.2,47.4,136.1,40.4,24.7,16.7,44130,mountain,44.228805,-111.481909
gem,id,145.3,40.4,135.8,67.1,27.8,18.4,44173,mountain,44.061691,-116.397227
gooding,id,137.6,40.5,151.6,66.9,23.9,16.3,41310,mountain,42.970902,-114.811515
idaho,id,105.4,34.1,97.2,48.2,15.2,15.8,39434,mountain,45.844198,-115.46746
jefferson,id,92.7,36.3,122.1,33.9,27.1,13.1,52950,mountain,43.820143,-112.311283
kootenai,id,136,40,127.4,56.6,27,13.3,51681,mountain,47.674556,-116.700014
latah,id,128.9,34.7,119.2,50.6,25,18.1,43699,mountain,46.816128,-116.71168
lemhi,id,118.4,57.3,109.7,46.5,33.5,18,38367,mountain,44.943243,-113.933163
minidoka,id,130.3,34.7,109.1,54.8,17.5,14.4,41968,mountain,42.854399,-113.637517
nez perce,id,128.9,30.4,140.7,69.3,26.5,13.4,46753,mountain,46.326761,-116.750235
owyhee,id,126.5,34.1,120.2,40.7,30.5,18.4,35017,mountain,42.581531,-116.169979
payette,id,118.2,41.7,158.5,64.8,24.9,17.6,43642,mountain,44.006738,-116.760843
twin falls,id,126.3,43.7,119,53.4,25.4,16,44602,mountain,42.355978,-114.667163
valley,id,129.5,24.8,121.5,41.3,27.5,11.7,48879,mountain,44.766702,-115.566128
washington,id,136.1,38.1,174.4,68.3,23.9,17.9,37539,mountain,44.452426,-116.784771
adams,il,115.5,48.5,115.6,74.1,22.4,15.9,43604,east_north_central,39.987894,-91.188489
boone,il,117.1,41.3,97.8,66.3,23,10.2,59537,east_north_central,42.32308,-88.823363
bureau,il,111.9,47.7,152.4,69.6,25.2,12,49062,east_north_central,41.404152,-89.528677
carroll,il,124.3,46.8,127.7,54,14.9,14,43643,east_north_central,42.068686,-89.934413
cass,il,112.9,58.6,74.2,89.7,22.5,12.9,45257,east_north_central,39.973565,-90.247386
champaign,il,131.6,33.7,116.3,62.4,24.9,21.6,46917,east_north_central,40.140084,-88.199192
christian,il,130.2,57,105.3,94.1,22.9,13.1,49391,east_north_central,39.545793,-89.277268
clark,il,99.2,49.7,127.4,75.5,19.8,13.7,46287,east_north_central,39.333567,-87.787723
clay,il,126.5,46.6,126,79.5,21.1,14.2,42369,east_north_central,38.754162,-88.490192
clinton,il,138.6,52.1,120.2,63.6,25.8,9.5,61843,east_north_central,38.606452,-89.422485
coles,il,125.1,45.2,94.7,80.4,20.3,19.8,39353,east_north_central,39.520287,-88.221795
cook,il,128.6,46.8,135.4,63.4,13.4,17.8,53795,east_north_central,41.895417,-87.646165
cumberland,il,80.6,60.5,105.9,89.1,23.4,12.1,47382,east_north_central,39.273317,-88.24023
de witt,il,122.7,67.7,175.8,94.3,22.2,13.8,53303,east_north_central,40.174629,-88.90409
dekalb,il,124.9,43.4,140,72.8,20.2,18.7,54204,east_north_central,41.893529,-88.770315
douglas,il,115.8,41,144.1,66.3,22.9,10.7,49179,east_north_central,39.769464,-88.217355
dupage,il,145,39.2,123.2,56.1,16.2,7,76269,east_north_central,41.851956,-88.085628
edgar,il,111.6,51.3,93.7,76.6,24.1,18.5,44433,east_north_central,39.678535,-87.745571
effingham,il,119.4,56.7,159.6,67.5,22.8,11.1,50900,east_north_central,39.05977,-88.589857
fayette,il,112.8,43.9,110,58,20.4,16.9,43014,east_north_central,39.000191,-89.024144
ford,il,149.8,45.9,128.3,66.8,23.4,11.4,52375,east_north_central,40.597177,-88.223259
franklin,il,132.3,45.3,118.1,103.4,25.9,20,35681,east_north_central,37.992285,-88.924154
fulton,il,138.6,45.3,133.1,74.9,21.1,14.8,46342,east_north_central,40.472766,-90.207473
grundy,il,125.1,50.3,142,90,21.6,8,68474,east_north_central,41.285087,-88.418495
hamilton,il,76.8,69.1,167.5,85.2,31.2,14.9,42330,east_north_central,38.081574,-88.539106
hancock,il,135.4,46,109.6,74.4,24.3,12.2,47965,east_north_central,40.403776,-91.164698
henry,il,119.3,45.6,108.7,74.9,25.8,11.2,52117,east_north_central,41.353133,-90.131417
iroquois,il,120.6,55.7,94.2,72,18.9,14,46977,east_north_central,40.747226,-87.824304
jackson,il,120.6,48,97,69,22.7,29.5,34243,east_north_central,37.78514,-89.382116
jefferson,il,115.2,50.9,164.2,92.7,25.9,18.4,40663,east_north_central,38.30052,-88.924008
jersey,il,100.1,29.7,117.1,78.7,29.8,10.5,54331,east_north_central,39.085662,-90.356683
jo daviess,il,118.6,42.6,126.3,55.9,23.4,10.2,49573,east_north_central,42.365816,-90.212586
johnson,il,131.4,64.9,93.1,83.6,20.6,17.9,39965,east_north_central,37.459631,-88.880889
kane,il,124.9,37.8,128.3,58.9,17.9,10.9,71444,east_north_central,41.938904,-88.428638
kankakee,il,112.1,46.1,136,73.6,15.1,16.7,49584,east_north_central,41.137705,-87.861798
kendall,il,128.6,45.8,131.9,54.6,21.4,5.8,79648,east_north_central,41.590542,-88.428834
knox,il,116.1,44.9,108.3,69.1,26.2,19.6,39494,east_north_central,40.931817,-90.213259
la salle,il,116.4,49.6,180.1,76.4,26.3,13.8,49487,east_north_central,41.343995,-88.885946
lake,il,135.8,39.3,112.7,58.2,22.7,9.5,75106,east_north_central,42.325323,-87.631209
lee,il,112,47.3,120.7,66.9,25.3,12.4,53126,east_north_central,41.746193,-89.300387
livingston,il,126.9,49.7,154.6,81.6,26.6,12.5,52819,east_north_central,40.891557,-88.557717
logan,il,123.9,60.6,125.3,90.7,18.3,13.6,50991,east_north_central,40.124557,-89.367546
macon,il,131.4,51,147.1,96.6,24.3,18.1,46179,east_north_central,39.859995,-88.961597
macoupin,il,126,51.5,132.2,79.5,20.8,13.9,50089,east_north_central,39.261015,-89.924433
madison,il,124.7,43.5,121.6,83.5,21.1,13.7,53864,east_north_central,38.829853,-89.905168
marion,il,125,49.1,128,91.5,26.3,19.2,40969,east_north_central,38.649591,-88.918973
marshall,il,140.1,48.1,175.6,58.5,27.1,10.2,50899,east_north_central,41.033174,-89.344777
mason,il,111.3,49.9,108.5,92.3,25.6,14,45563,east_north_central,40.239648,-89.916784
massac,il,120.2,45,113.3,100.9,21.1,17.5,41373,east_north_central,37.219027,-88.707744
mcdonough,il,107.5,50.2,111.9,63.1,23.1,21.1,41661,east_north_central,40.456211,-90.67791
mchenry,il,138.2,43.6,119.1,65.3,19.9,7.1,75713,east_north_central,42.324387,-88.45245
mclean,il,131,42.1,157,64.1,30.2,13.8,62261,east_north_central,40.49089,-88.847323
menard,il,134.7,46.9,101.3,75.9,20.6,10.8,60151,east_north_central,40.027397,-89.80217
mercer,il,139.9,44.6,120.2,76.7,26.7,9.7,53626,east_north_central,41.205339,-90.741408
monroe,il,125.2,44.1,130.8,60.9,29.6,4.9,71604,east_north_central,38.278649,-90.177377
montgomery,il,136.6,55.6,118.2,86.5,19.2,16.1,42614,east_north_central,39.23104,-89.47887
morgan,il,135.4,48.7,122.2,77.6,20,16,48223,east_north_central,39.715565,-90.201496
moultrie,il,137.3,38,98.9,56.9,23.6,12.4,47645,east_north_central,39.641479,-88.619299
ogle,il,122.5,40.8,83.1,66.7,26.4,13,51334,east_north_central,42.042645,-89.320654
peoria,il,135.3,47.3,149.6,84,23.8,17,49827,east_north_central,40.788081,-89.759987
perry,il,125,54.5,108.3,74.4,26.2,17.6,41931,east_north_central,38.08376,-89.367015
piatt,il,146.6,30.1,118.3,79.8,40.3,7.2,66279,east_north_central,40.010367,-88.591091
pike,il,111,57.6,98.7,68.4,18.5,17.3,39430,east_north_central,39.622496,-90.886287
randolph,il,97.2,57.9,102.1,78.6,21,14.1,44991,east_north_central,38.052124,-89.825311
richland,il,120.3,48.9,127.7,81.6,26.8,16.4,41985,east_north_central,38.71236,-88.085101
rock island,il,119.9,44.3,118.3,66.8,26.4,15.8,48160,east_north_central,41.46733,-90.567426
saline,il,104.2,57.9,118.2,91.8,22.7,18.6,39281,east_north_central,37.753183,-88.540801
sangamon,il,138.1,48.5,119.7,77.6,21.8,15.2,55255,east_north_central,39.758173,-89.658898
shelby,il,113.4,48.2,100.5,77.1,20.1,12.6,50569,east_north_central,39.391156,-88.805536
st. clair,il,123,45.9,126.2,75.8,19.2,18.3,48343,east_north_central,38.470305,-89.92841
stephenson,il,108.2,39.3,104.7,63.8,21.4,18.6,42897,east_north_central,42.351747,-89.66236
tazewell,il,125.9,48.3,139.6,87.2,24.1,8.9,57544,east_north_central,40.507517,-89.51342
union,il,124.9,48.5,102.9,102.7,25.5,16.7,42799,east_north_central,37.471228,-89.255088
vermilion,il,133.8,54.2,140.6,86.4,20.2,19.6,44085,east_north_central,40.183422,-87.732835
warren,il,151.9,48.2,109.4,74,24.3,15.1,45770,east_north_central,40.848832,-90.615029
washington,il,110.1,66.2,153.6,74.1,23.1,9.9,53967,east_north_central,38.352175,-89.410454
wayne,il,128.7,34,122.6,89.2,23.6,17.4,42896,east_north_central,38.429565,-88.425614
whiteside,il,122.9,38.1,120.4,71.8,22.3,12.1,50489,east_north_central,41.756265,-89.914092
will,il,129.2,45.2,134,72,16.4,8.5,74669,east_north_central,41.445035,-87.978658
williamson,il,104.7,55.7,108.6,97.5,23.9,16.2,44041,east_north_central,37.730247,-88.929937
winnebago,il,117.4,42.2,105.2,74,24.3,16.3,47214,east_north_central,42.336265,-89.160853
woodford,il,141.4,42.3,119.1,61,24,7,67036,east_north_central,40.788232,-89.211137
adams,in,103.4,54,110.6,50.2,23,15.5,48001,east_north_central,40.74566,-84.936655
allen,in,122.3,42.7,101.2,61.9,18.4,17,45587,east_north_central,41.090871,-85.066562
bartholomew,in,122.4,40.2,86.1,77.8,20.7,11.6,54341,east_north_central,39.205973,-85.897605
blackford,in,104.9,51.6,122.6,74.9,22,15.4,39373,east_north_central,40.473601,-85.32482
boone,in,141.9,34.8,104,67,19.1,7.3,68047,east_north_central,40.050801,-86.468696
brown,in,90.3,45.7,93.7,61.8,29.3,13.4,51074,east_north_central,39.196211,-86.227375
carroll,in,93.7,42.5,102.8,66.1,17.8,10.9,52587,east_north_central,40.582859,-86.563484
cass,in,115.4,42.4,107.1,89.5,11.3,13.8,41611,east_north_central,40.761491,-86.345947
clark,in,118.5,43.6,56.3,88.1,12.8,11.7,50296,east_north_central,38.477195,-85.707272
clay,in,117.6,52.3,107.5,73.8,20.1,15,47030,east_north_central,39.392728,-87.115758
clinton,in,113.1,48,94.1,76.2,16.6,14.4,47279,east_north_central,40.301691,-86.47516
daviess,in,82.6,44.1,91.3,62.8,17.9,13.9,45578,east_north_central,38.70241,-87.072068
de kalb,in,126.4,50.4,98.4,68.5,17.8,12.9,50279,east_north_central,41.39758,-84.999084
dearborn,in,121.4,42,101,82.3,16,10.8,55077,east_north_central,39.145186,-84.973261
decatur,in,81.6,35.8,118,69.6,19,12.9,47666,east_north_central,39.307,-85.501143
delaware,in,114.9,43.4,122.5,79.9,21,23,37116,east_north_central,40.227525,-85.396899
dubois,in,111.8,41.6,116.9,55,24,8.9,55606,east_north_central,38.364276,-86.879802
elkhart,in,112.9,42.1,102.9,70.2,19.2,15.5,46123,east_north_central,41.597384,-85.858755
fayette,in,83.9,33.9,98.5,87.4,16.3,17.3,40212,east_north_central,39.640056,-85.178725
floyd,in,132.3,38.5,71.9,79.3,15.1,13.1,55844,east_north_central,38.318929,-85.906831
franklin,in,100.6,32.8,118.6,64.7,19.7,11.4,53538,east_north_central,39.414865,-85.060285
fulton,in,119.6,55.6,100.2,83.8,20.9,16.3,44337,east_north_central,41.046963,-86.263584
gibson,in,112.7,44,119.2,70,19.4,12,48579,east_north_central,38.311825,-87.584595
grant,in,116.4,56.1,130.5,85.5,19.6,21.7,39325,east_north_central,40.515845,-85.654726
greene,in,97.8,44.4,75.3,81.1,23.8,13.7,43786,east_north_central,39.036329,-86.962047
hamilton,in,131.1,37.3,95,46.7,22.8,5.5,84022,east_north_central,40.072489,-86.052014
hancock,in,121.5,39.9,74.5,83.1,25.3,6.5,67738,east_north_central,39.82355,-85.773238
harrison,in,124.2,35.3,73.3,90.7,16.4,13,50321,east_north_central,38.195123,-86.111311
hendricks,in,133,35.6,110.1,69.9,17.5,6.4,68575,east_north_central,39.769517,-86.509976
henry,in,108.7,48.9,91.6,76.6,18.9,17.2,42133,east_north_central,39.93104,-85.396435
howard,in,108,36.2,85.9,75,16.8,15.8,45211,east_north_central,40.483586,-86.116931
huntington,in,127.9,40.1,107.4,65,21.5,13,44828,east_north_central,40.82924,-85.488172
jackson,in,128.8,50.3,90,81.4,25.9,12.9,49614,east_north_central,38.90642,-86.037538
jasper,in,123.7,45.4,101.9,85.6,10.9,10.7,53757,east_north_central,41.022998,-87.116121
jay,in,122.6,65.7,100.6,68.9,25.6,16,41847,east_north_central,40.437918,-85.005635
jefferson,in,96.7,45.3,106.6,81.7,17.9,15.3,44569,east_north_central,38.785823,-85.438573
jennings,in,111.7,42.2,71.4,97.9,19,16.9,44554,east_north_central,38.99693,-85.628065
johnson,in,117.5,46.3,62.4,67.9,21.7,11.8,58936,east_north_central,39.489971,-86.101637
knox,in,133.1,54,121.5,76,20.6,15.9,44091,east_north_central,38.68909,-87.418008
kosciusko,in,121.7,48.8,102.6,71.6,22.7,12.7,51603,east_north_central,41.244097,-85.860718
la porte,in,112.1,46.6,127.4,77.2,26.4,17,46610,east_north_central,41.549022,-86.742366
lagrange,in,104.4,37.7,83.4,56.4,16.2,12.7,51810,east_north_central,41.642606,-85.426498
lake,in,127.2,50.8,131.9,74,10.7,17.8,48341,east_north_central,41.472211,-87.376382
lawrence,in,107.2,55.6,95.9,89.5,27.3,12.9,44435,east_north_central,38.841163,-86.483451
madison,in,114.3,42.2,128.7,81.8,16.3,19.6,41117,east_north_central,40.161656,-85.719345
marion,in,126.7,39.7,86.5,79.7,14.1,21.3,41478,east_north_central,39.78171,-86.138472
marshall,in,108.4,42.7,116.3,67.1,18.2,13.8,45855,east_north_central,41.324849,-86.261761
miami,in,88.2,33.2,82.1,77.1,12.2,17.7,43694,east_north_central,40.769504,-86.045023
monroe,in,123,44,96,66.9,31,24,42404,east_north_central,39.160918,-86.523137
montgomery,in,108.5,41.7,83.6,70,12.1,12.5,50889,east_north_central,40.040379,-86.8933
morgan,in,132.2,51.9,108.9,83.9,21.3,12.7,56491,east_north_central,39.481548,-86.446212
noble,in,116.2,41.6,89.2,69,14.6,13.6,48789,east_north_central,41.398599,-85.417467
orange,in,115.4,58.5,70.1,85.4,18.5,16.8,39411,east_north_central,38.541779,-86.495069
owen,in,96.6,50,86,85,22.6,15,42994,east_north_central,39.312812,-86.837652
perry,in,124.7,39.1,77.5,101.2,13.7,14.2,45722,east_north_central,38.079649,-86.638032
pike,in,123.4,49.3,102.2,66.6,22.8,12.3,45679,east_north_central,38.398783,-87.232164
porter,in,125.3,46.6,125.9,73.6,17.1,11.7,64530,east_north_central,41.508838,-87.073319
posey,in,108.8,42.8,119.8,60.3,23.5,9.6,58477,east_north_central,38.021892,-87.868471
pulaski,in,111.5,48,122.4,71.1,22,14.3,44821,east_north_central,41.041832,-86.698779
putnam,in,119.8,49.2,66.7,95.1,14.1,13.2,51052,east_north_central,39.666262,-86.845
randolph,in,119.3,47.7,133.9,83.1,22.6,18.1,41057,east_north_central,40.15764,-85.01131
ripley,in,101.4,41.7,92,75.6,25.3,10.2,47495,east_north_central,39.103455,-85.262386
rush,in,132.3,43.6,87.3,80.8,20.4,12.8,46910,east_north_central,39.619948,-85.465761
scott,in,116.5,53.1,54,91.8,15.1,17,43650,east_north_central,38.68507,-85.747468
shelby,in,133.5,47.6,99.2,81.8,22.6,12.6,49657,east_north_central,39.523692,-85.7917
spencer,in,113.5,43.3,99,77.9,21.5,10.5,50533,east_north_central,38.014059,-87.007706
st. joseph,in,121.3,45.8,117.5,71.5,16,20.1,40978,east_north_central,41.616718,-86.289858
starke,in,103.7,42.6,109,93.5,20.9,19.4,39552,east_north_central,41.280926,-86.647649
steuben,in,99.7,39.1,99,71,16.9,12.3,46275,east_north_central,41.643868,-85.000765
sullivan,in,95.3,50.5,93,81.8,12.6,18.3,41978,east_north_central,39.088835,-87.41469
switzerland,in,88.1,71.3,57.9,84.7,32.5,19.9,43243,east_north_central,38.826161,-85.036998
tippecanoe,in,122.4,44.7,99.9,64,20.3,19.6,47808,east_north_central,40.388619,-86.894097
tipton,in,129.6,56,65.5,73.3,17.3,10.3,53185,east_north_central,40.311345,-86.051859
vanderburgh,in,110.8,40.2,102.4,79.6,13.8,18.7,42014,east_north_central,38.025143,-87.585783
vermillion,in,105,54.9,130,92.6,17.7,13.9,40813,east_north_central,39.853797,-87.463974
vigo,in,133.1,46.8,112.4,80.4,18.2,23.9,39014,east_north_central,39.430639,-87.389964
wabash,in,101.7,47.1,120.3,64.3,24.4,14.2,45833,east_north_central,40.845693,-85.794006
warrick,in,139.4,40.9,109.2,66.7,17.6,7.9,61820,east_north_central,38.092166,-87.272054
washington,in,128,51.4,68.5,96.2,15.8,15.5,43981,east_north_central,38.599984,-86.105306
wayne,in,111.3,44.2,113.1,85.2,20.3,23,36623,east_north_central,39.864416,-85.009876
wells,in,114.6,34.7,82.1,52.4,24.7,11.8,49452,east_north_central,40.729187,-85.22122
whitley,in,109.8,43.2,106.3,63.8,24.4,8.9,52673,east_north_central,41.139375,-85.505118
adair,ky,117.7,48.9,85,91.2,18.4,25,31710,east_south_central,37.104156,-85.280649
allen,ky,127.4,45.6,93.7,82.9,14.9,20.6,39798,east_south_central,36.751317,-86.190419
anderson,ky,137.6,51.1,129.7,95.1,24.1,11.4,52852,east_south_central,38.003911,-84.991009
barren,ky,104.4,51,116.2,106.9,20.1,20.7,38370,east_south_central,36.965581,-85.933663
bath,ky,136.2,53.9,129.3,109,27.2,26.5,33752,east_south_central,38.144974,-83.742667
bell,ky,83.9,57.7,96.2,99.5,20.4,35.7,25761,east_south_central,36.730648,-83.674095
boone,ky,122,42.7,134.2,86,23.4,8.7,65274,east_south_central,38.969864,-84.727866
bourbon,ky,100.2,39.9,128,93.4,26.9,16.5,40045,east_south_central,38.206734,-84.217151
boyd,ky,114.7,48.3,113.1,92.7,29.2,20.3,41443,east_south_central,38.359572,-82.687726
boyle,ky,141.8,44.8,133.5,77.6,29.5,17.2,43585,east_south_central,37.624333,-84.866812
bracken,ky,119.8,78.7,115.3,120.6,42.2,16.2,43222,east_south_central,38.688814,-84.09019
breathitt,ky,101,69.9,90.6,105.7,22.4,33.9,26869,east_south_central,37.521617,-83.324085
breckinridge,ky,110.9,62.1,107.6,110.2,26.7,19.2,40107,east_south_central,37.773268,-86.429278
bullitt,ky,142.5,55.7,109.5,90.9,30.3,10.2,57462,east_south_central,37.970076,-85.695857
caldwell,ky,103.7,42.6,114.7,103.9,21.2,19,37317,east_south_central,37.145333,-87.867907
calloway,ky,98.1,45.9,124.6,79.1,32.8,22.8,37977,east_south_central,36.621101,-88.272201
campbell,ky,126.9,54.5,118.5,94.5,29.2,14.8,53321,east_south_central,38.946477,-84.379696
carroll,ky,137.7,63.9,83.7,120.7,38.3,21,41792,east_south_central,38.667858,-85.12359
carter,ky,132.6,54.1,119.8,103,16.3,22.5,34767,east_south_central,38.318173,-83.049537
casey,ky,105,52.5,119.9,108.6,21.7,29.7,29303,east_south_central,37.32228,-84.928369
christian,ky,102.7,48.4,121.8,84.9,21.5,18.1,41333,east_south_central,36.894181,-87.490381
clark,ky,132.9,54.3,109.8,93.4,31.7,17.1,45516,east_south_central,37.970852,-84.147399
clay,ky,119.6,55.5,157.4,118.6,17.2,42.8,24173,east_south_central,37.159711,-83.714681
clinton,ky,119.6,57.7,101.6,111.7,32.4,27.6,27443,east_south_central,36.727482,-85.136014
cumberland,ky,99.7,59.9,96.6,96.4,39.7,26.2,30043,east_south_central,36.78653,-85.388449
daviess,ky,110.7,43.9,151.1,110.2,27.2,15.3,46908,east_south_central,37.731772,-87.087227
estill,ky,131.1,55.3,94,124.6,24.8,28.1,30388,east_south_central,37.692482,-83.96433
fayette,ky,141.3,42.4,134.2,74,26.7,19,47959,east_south_central,38.042324,-84.458726
fleming,ky,142.6,66,109,90.5,28,23.2,35454,east_south_central,38.37011,-83.696647
floyd,ky,114.1,58.5,110,149.4,16.8,30.6,31229,east_south_central,37.557109,-82.745704
franklin,ky,134.4,49.9,92.2,93,32,16.9,46309,east_south_central,38.239148,-84.877068
garrard,ky,139.3,64.7,99.6,97.8,28.7,19.3,42853,east_south_central,37.639578,-84.537633
grant,ky,129.6,54.4,131.1,95.8,12.5,20.1,43861,east_south_central,38.648812,-84.624614
graves,ky,127.2,47.6,90.4,85.8,27.5,19.3,39960,east_south_central,36.723138,-88.651206
grayson,ky,121.4,70.2,86.9,129.7,25.4,25.1,32813,east_south_central,37.460819,-86.343877
green,ky,101.5,52.2,94,86.4,36,23.1,32309,east_south_central,37.264108,-85.553105
greenup,ky,108.3,47.9,104.1,107.4,24.9,19,44581,east_south_central,38.545665,-82.922288
hardin,ky,121.3,51.5,135.4,101.5,20.4,14.4,48327,east_south_central,37.697924,-85.963372
harlan,ky,89.1,56.9,86,127.6,20.4,30.5,25460,east_south_central,36.856974,-83.217952
harrison,ky,90.7,50.5,106.3,95.8,20.6,17.4,42228,east_south_central,38.441807,-84.331385
hart,ky,88.4,49.8,79.2,114.5,21.5,27.9,33588,east_south_central,37.299927,-85.884709
henderson,ky,119.1,57.3,97.5,97.8,19.6,19.5,42492,east_south_central,37.795898,-87.573161
henry,ky,144.5,52.8,109.3,109.3,33.6,15.4,48245,east_south_central,38.448468,-85.11893
hopkins,ky,101.3,47.8,99.2,89.9,24.2,17.5,40782,east_south_central,37.30882,-87.540842
jackson,ky,124.3,63.3,128.3,118.3,21.2,30.3,28759,east_south_central,37.419777,-84.005766
jefferson,ky,139.1,51.1,133.6,89.6,21.9,16.1,47495,east_south_central,38.187191,-85.659158
jessamine,ky,112.3,42.8,122.1,89,36,15.4,52011,east_south_central,37.87203,-84.580933
johnson,ky,120.2,64.3,104.9,113,17.5,25.7,34593,east_south_central,37.846639,-82.83154
kenton,ky,120.7,46.1,113,90.3,22.4,13.4,53949,east_south_central,38.933456,-84.533341
knox,ky,88.8,53.2,117.1,125,18.7,35.2,26220,east_south_central,36.890666,-83.854044
laurel,ky,107.7,53.2,132.8,89.1,27.8,22.2,35372,east_south_central,37.11067,-84.1178
lawrence,ky,98.2,69.2,84.8,113.9,21.3,25.2,33469,east_south_central,38.067879,-82.734755
letcher,ky,93.7,66.7,78.1,118.5,18.3,27.1,31799,east_south_central,37.121192,-82.855282
lewis,ky,89.5,46.3,128.3,112.6,21.2,27,30443,east_south_central,38.531544,-83.378054
lincoln,ky,111.7,60.5,111,98.5,30.8,23.1,35092,east_south_central,37.455349,-84.660811
logan,ky,118.2,50.5,163.2,103.5,24.9,19.7,39513,east_south_central,36.859699,-86.878938
madison,ky,134.1,44.2,138,91.6,31.5,19.8,44845,east_south_central,37.720184,-84.277997
magoffin,ky,92.6,54.7,103.7,109.7,22.2,29,29817,east_south_central,37.706474,-83.064915
marion,ky,111,60.5,126.3,100.8,19,18.5,39665,east_south_central,37.552534,-85.269632
marshall,ky,110.5,51.5,112.3,82.9,32.7,12.7,44157,east_south_central,36.883447,-88.329381
mason,ky,131.3,65.8,125,123.7,24.2,20.7,42329,east_south_central,38.595173,-83.824245
mccracken,ky,114.8,43.5,117,80.9,23.4,19.8,42069,east_south_central,37.054081,-88.712722
meade,ky,102.7,45.5,121,118.1,22.5,15.4,45984,east_south_central,37.969839,-86.217179
mercer,ky,130.4,60.5,127.7,93.3,28.3,16.4,43903,east_south_central,37.811033,-84.874435
metcalfe,ky,97.4,57.3,68,107.7,27.8,27.7,30899,east_south_central,36.990542,-85.629251
monroe,ky,115.1,55.4,123.2,106.8,30.3,23.8,29900,east_south_central,36.71218,-85.71652
montgomery,ky,129.3,66.2,108.1,94.8,18.6,20,41326,east_south_central,38.033533,-83.913102
muhlenberg,ky,92.1,50.7,107,102.6,24.2,25.1,37048,east_south_central,37.215792,-87.142042
nelson,ky,130.4,46.5,115.3,90.4,36.5,14.7,49444,east_south_central,37.805131,-85.465989
ohio,ky,130.8,53.2,123.8,124.8,23.2,19.1,40622,east_south_central,37.478192,-86.84889
oldham,ky,149,39.4,151.2,77.2,33,6.1,86580,east_south_central,38.399442,-85.448366
owen,ky,62.3,41.8,96.4,91.2,37,19.1,42134,east_south_central,38.519636,-84.82811
perry,ky,120.9,56.1,107.8,139.7,17.8,26.9,32300,east_south_central,37.244293,-83.221482
pike,ky,123.1,55.3,65.5,123,21.5,23,35071,east_south_central,37.469023,-82.395867
pulaski,ky,119.1,56.3,112.4,93.6,28,25.2,34355,east_south_central,37.103927,-84.577176
rockcastle,ky,134,45.5,146.7,118.1,16.7,25.6,33131,east_south_central,37.365178,-84.315941
rowan,ky,103.6,56.1,94,92.4,21.9,24.7,37690,east_south_central,38.196256,-83.421076
russell,ky,95.4,48.3,75.9,102.4,24.9,25.5,30985,east_south_central,36.991034,-85.058688
scott,ky,131.7,46.7,149.5,87.3,20.3,10.5,61906,east_south_central,38.291555,-84.583927
shelby,ky,126.8,58,117.8,76.6,33.5,12.6,56808,east_south_central,38.215436,-85.194774
simpson,ky,124.6,57.8,112.2,106.5,22.2,18.5,39117,east_south_central,36.741942,-86.582321
spencer,ky,113.9,55.4,111,84.8,31.5,9.3,66711,east_south_central,38.032511,-85.327852
taylor,ky,104,60.3,119.8,100.2,34.9,20.7,36599,east_south_central,37.366456,-85.327839
trigg,ky,95.7,33.6,88.7,94.6,29.9,18.3,43416,east_south_central,36.80632,-87.873371
warren,ky,114.8,42.5,133,91.3,30.5,18.4,48137,east_south_central,36.993577,-86.423799
washington,ky,113.6,50.2,134.3,80.5,34.2,16.8,42500,east_south_central,37.75338,-85.174746
wayne,ky,104.1,48.8,111.6,101.7,20,27.5,29878,east_south_central,36.801265,-84.828631
whitley,ky,102.1,48,119.7,122.4,23.3,26.3,30878,east_south_central,36.758073,-84.145178
woodford,ky,98.8,44.7,130.2,68.2,31.3,11,59233,east_south_central,38.042388,-84.743594
acadia parish,la,120.7,57.6,132.5,79.6,14.2,19,38788,west_south_central,30.290533,-92.411979
ascension parish,la,116.2,40.6,178.1,68.6,23.9,11.1,70303,west_south_central,30.203545,-90.911292
assumption parish,la,109.3,56.5,131.4,77.8,13.2,18.2,44749,west_south_central,29.900772,-91.062587
avoyelles parish,la,105.3,60.4,138.4,85.2,10.5,23.8,33240,west_south_central,31.076244,-92.001377
beauregard parish,la,112.1,38.5,120.3,76.4,15.9,16.6,46225,west_south_central,30.648469,-93.343339
bossier parish,la,109.1,40.4,151.3,75.3,17.2,14.6,51899,west_south_central,32.678932,-93.605046
caddo parish,la,119.6,49,161.4,69,12.7,22,39776,west_south_central,32.580193,-93.882396
calcasieu parish,la,118.5,49.7,147.1,68.4,17.3,16.6,43779,west_south_central,30.229224,-93.357945
de soto parish,la,131.3,53,154.4,80.7,18.5,23.5,39403,west_south_central,32.05545,-93.737277
east baton rouge parish,la,130.4,44.4,190.3,56.4,18.8,20.8,47770,west_south_central,30.53824,-91.095617
east feliciana parish,la,158.2,70.5,195.9,61.1,15.5,20.6,41578,west_south_central,30.845071,-91.045535
evangeline parish,la,98.3,66.4,142.6,81.8,11.2,27.6,32130,west_south_central,30.728936,-92.405904
franklin parish,la,125.5,53.7,133.8,77.2,15.6,29.1,31243,west_south_central,32.133216,-91.673765
grant parish,la,62.1,56.4,127.4,100.8,19.8,21.2,41208,west_south_central,31.599704,-92.55952
iberia parish,la,138.2,58.1,147.8,78.2,14.6,20.2,41185,west_south_central,29.7565,-91.763056
iberville parish,la,137,69.6,209.5,92.2,12.9,25.7,40449,west_south_central,30.258499,-91.349363
jefferson davis parish,la,136.3,57.1,128.1,81.8,12.3,18,40760,west_south_central,30.267722,-92.814121
jefferson parish,la,133.1,43.3,151.6,67.4,16,18.9,46547,west_south_central,29.677458,-90.097765
lafayette parish,la,140.2,52.2,161.9,69.9,13,15.6,54978,west_south_central,30.206772,-92.06388
lafourche parish,la,119.8,44.8,132,70.9,11.4,16.5,52115,west_south_central,29.500332,-90.402595
lincoln parish,la,113.8,40.1,135.7,60.7,16,32.2,34667,west_south_central,32.601637,-92.664815
livingston parish,la,107.6,47.6,136.7,81.6,26.9,14.3,53118,west_south_central,30.440136,-90.727907
morehouse parish,la,121,48.2,157.6,76.1,11.2,27.6,28951,west_south_central,32.820218,-91.801797
natchitoches parish,la,115.2,51.7,132.5,66,19.7,27.7,35165,west_south_central,31.72354,-93.096243
orleans parish,la,128.5,46.2,163.4,67.6,10.3,26.6,36240,west_south_central,30.068644,-89.928128
ouachita parish,la,118.5,45.3,137.6,78.3,23.1,23.8,39976,west_south_central,32.478313,-92.15487
pointe coupee parish,la,129.8,55.3,152.6,53.5,21.4,20.2,42129,west_south_central,30.709396,-91.600789
rapides parish,la,117.3,48.6,156.6,68.9,15,19.7,39411,west_south_central,31.19862,-92.5332
st. charles parish,la,125.8,43,135.1,71.2,19.1,13.8,56163,west_south_central,29.905528,-90.35822
st. john the baptist parish,la,123.2,49.4,147.2,61.6,10.4,18.5,47389,west_south_central,30.12646,-90.470884
st. landry parish,la,126.9,62.2,172.5,80.3,11.7,27.1,33781,west_south_central,30.598851,-92.005857
st. martin parish,la,116.2,60.7,159.9,75.1,12,19.4,42110,west_south_central,30.129072,-91.608296
st. mary parish,la,132.6,56,164.8,66.6,11.5,22.3,39608,west_south_central,29.634623,-91.472926
st. tammany parish,la,139.5,43.7,139.2,67.3,25.4,11,61655,west_south_central,30.407843,-89.954633
tangipahoa parish,la,116.8,50.9,159.4,79.3,15.6,22.2,40228,west_south_central,30.626653,-90.40568
terrebonne parish,la,111.4,51.1,139.9,76.2,16,15.2,51716,west_south_central,29.337442,-90.83764
union parish,la,109.4,46.5,117.6,78.9,17,24.6,35825,west_south_central,32.831896,-92.374818
vermilion parish,la,132.7,58.8,197.2,77.5,17.9,18.6,43434,west_south_central,29.809389,-92.304283
vernon parish,la,92.2,41.8,141.2,91.7,16.7,17.3,42772,west_south_central,31.108294,-93.184147
washington parish,la,127.3,45,152,92,18.6,25.4,31630,west_south_central,30.853342,-90.040525
webster parish,la,117.9,45,134.9,86.3,16,23.7,35762,west_south_central,32.713454,-93.334983
west baton rouge parish,la,139.3,48.6,215.2,71.5,18.3,16.4,48848,west_south_central,30.463415,-91.312747
winn parish,la,79.6,51,142.3,80.3,22.6,27.3,35674,west_south_central,31.944249,-92.636765
barnstable,ma,156.4,36,145,60,34.1,9.6,60685,new_england,41.773449,-70.238137
berkshire,ma,119.6,40.6,120.4,70,22.4,12.8,51431,new_england,42.370674,-73.206404
bristol,ma,125.3,41.2,129.3,72.9,17.4,14.1,53626,new_england,41.757092,-71.088519
dukes,ma,181.7,40.5,136.1,53.7,41.8,9,58276,new_england,41.388775,-70.698772
essex,ma,137.8,37.8,134.7,67.5,22.8,11.6,67235,new_england,42.638874,-70.867921
franklin,ma,126.6,35.7,103,52.1,19.5,12.6,51828,new_england,42.583121,-72.59187
hampden,ma,129.2,39.3,104.8,67.8,15.9,17.9,48560,new_england,42.135109,-72.63162
hampshire,ma,131.6,44,97.9,52.5,16.7,13.1,61911,new_england,42.340138,-72.663765
middlesex,ma,139.9,38.4,117.5,61.8,20.1,8.7,82118,new_england,42.485545,-71.391837
nantucket,ma,198,33.2,102.9,52.8,75.3,8.8,71259,new_england,41.301241,-70.128113
norfolk,ma,144.9,39.5,127.3,63,26.2,6.9,83830,new_england,42.152698,-71.196704
plymouth,ma,139.2,41.6,128.8,72.4,27.7,8,75264,new_england,41.987431,-70.737066
suffolk,ma,126,41,139.5,69.7,16.2,20.4,54164,new_england,42.348659,-70.985637
worcester,ma,129.6,35.4,121.9,69.8,17,13,62268,new_england,42.351399,-71.90774
allegany,md,128.6,51.4,124.8,78.1,20.7,18.6,39994,south_atlantic,39.621481,-78.698902
anne arundel,md,129,33.8,137.9,64.3,30.2,7.3,85685,south_atlantic,38.994157,-76.567597
baltimore,md,134.5,39.3,125.4,67.6,25.7,9.5,64624,south_atlantic,39.443074,-76.616319
baltimore city,md,126.2,46.9,146.5,80.9,9.7,22.7,41988,south_atlantic,39.30098,-76.610647
calvert,md,143.3,33.5,126.6,64.7,30.8,6.9,91993,south_atlantic,38.534712,-76.530564
caroline,md,119.7,43.7,131.5,75.1,23.6,16.7,46015,south_atlantic,38.871722,-75.831601
carroll,md,135.2,38.7,115.5,61,34.1,6.8,82073,south_atlantic,39.562854,-77.022523
cecil,md,117.7,41.6,127.5,79.2,26.6,9.8,64880,south_atlantic,39.56242,-75.948107
charles,md,124,36.2,140.4,55.4,18.7,8,87577,south_atlantic,38.473681,-77.013484
dorchester,md,123,48.7,150.4,73.1,20.5,17.7,42542,south_atlantic,38.422608,-76.083325
frederick,md,122.3,43.9,115.7,52.7,21.9,6.9,83489,south_atlantic,39.472213,-77.397984
garrett,md,108.7,38.2,74.2,49.5,17.5,15.9,44404,south_atlantic,39.528603,-79.273879
harford,md,138.3,42.9,135.4,68.6,30.2,7.4,77453,south_atlantic,39.536437,-76.298872
howard,md,130.3,32.8,113.9,44.4,24.9,5.3,108503,south_atlantic,39.250717,-76.931194
kent,md,124.8,38.8,143.7,61.1,15,14.9,55695,south_atlantic,39.235604,-76.095821
montgomery,md,128.8,29,124.9,35.4,18.4,7,97873,south_atlantic,39.136362,-77.204237
prince george's,md,124.4,36.3,161.8,46.6,6.6,9.9,71682,south_atlantic,38.829515,-76.847292
queen anne's,md,116.3,28.6,131.8,63.9,31.8,8.4,80143,south_atlantic,39.037628,-76.085036
somerset,md,97,50,120.9,95.9,22.9,28.5,36106,south_atlantic,38.080066,-75.853469
st. mary's,md,105.5,32.7,97.7,68.8,26.2,8.2,78274,south_atlantic,38.215862,-76.529061
talbot,md,136.1,34.4,146.4,51.1,27.8,10.9,57525,south_atlantic,38.7491,-76.178617
washington,md,131.2,40.8,107.3,71.8,21.3,12,55643,south_atlantic,39.603675,-77.813981
wicomico,md,124.1,41.4,168.2,79.4,31.3,16.5,47536,south_atlantic,38.36941,-75.631531
worcester,md,142.1,34.1,139.9,70.2,36.8,13.1,52276,south_atlantic,38.216501,-75.296669
androscoggin,me,108.4,39.2,113,78.1,14.5,16.5,44097,new_england,44.165848,-70.206445
aroostook,me,102.4,46,118.6,84.1,15.7,16.4,37092,new_england,46.658811,-68.598888
cumberland,me,133,38.3,103.9,68.3,27.4,12.1,55020,new_england,43.806082,-70.330201
franklin,me,112.9,36.1,99,57.7,20.6,15.5,41154,new_england,44.97416,-70.444077
hancock,me,122.2,45.3,126.4,68.8,25.9,14.3,44463,new_england,44.562887,-68.368208
kennebec,me,128.7,38.4,108.8,75.6,20.7,14.8,45151,new_england,44.40916,-69.767264
knox,me,122.4,31.5,103.4,72,34,14.1,48352,new_england,44.027299,-69.015547
lincoln,me,112.5,36.1,93.2,50.8,27.8,13.3,48908,new_england,43.997787,-69.525759
oxford,me,109.7,40.6,104.3,85.6,20.5,15,38932,new_england,44.49977,-70.756573
penobscot,me,131.9,39.8,103.2,84.4,21.6,15.9,43615,new_england,45.400512,-68.649428
piscataquis,me,159.3,42.2,79.9,75.8,14.5,17.6,36553,new_england,45.837364,-69.284524
sagadahoc,me,117,31.8,119.6,66,23.9,12.1,52279,new_england,43.911727,-69.839309
somerset,me,104.7,42,84.8,84.3,18.7,17.8,38279,new_england,45.513867,-69.958821
waldo,me,133.5,46.3,120.9,83.6,17,16.8,43203,new_england,44.485247,-69.121881
washington,me,114.1,51.3,116.5,87.8,13.7,18.8,35754,new_england,44.969459,-67.609058
york,me,135.2,39.5,102.9,71.7,29.4,10,55163,new_england,43.429226,-70.670147
macomb,mi,126.3,41.7,145.5,75.2,19,13.4,52954,east_north_central,42.672795,-82.910158
oakland,mi,136.5,38.6,167.3,62.8,21.1,10.2,67281,east_north_central,42.660406,-83.385799
wayne,mi,131.2,46.9,180.7,83,11.4,25.1,40485,east_north_central,42.284776,-83.261125
adair,mo,136.9,41.2,102.2,57.8,13.9,24.9,35282,west_north_central,40.190562,-92.600719
audrain,mo,136,38.9,136.1,90.1,11.3,19.7,41164,west_north_central,39.215756,-91.841586
barry,mo,97.8,39.8,78.9,77.4,15.9,20.2,36573,west_north_central,36.709865,-93.829067
bates,mo,90.9,53.7,86.6,80.8,30,21.6,38586,west_north_central,38.257292,-94.339997
benton,mo,121.5,43.9,108.1,89.1,17.8,23.1,32563,west_north_central,38.294849,-93.287946
bollinger,mo,119.4,46,95.3,96.4,24.2,19.6,37627,west_north_central,37.322191,-90.025947
boone,mo,135.9,39.5,139.2,63.4,19.4,19.8,49118,west_north_central,38.990615,-92.30968
buchanan,mo,120.3,48.4,114.8,86.8,15.1,17.8,43461,west_north_central,39.659859,-94.806156
butler,mo,126.3,49,102.4,95.7,9.8,22,35381,west_north_central,36.716417,-90.406556
callaway,mo,120.4,38.7,132.2,79.4,12.7,13.8,45573,west_north_central,38.835524,-91.926014
camden,mo,122.7,39.5,96.2,68.6,17.9,18,41314,west_north_central,38.02704,-92.766054
cape girardeau,mo,131.4,37.6,116.4,70.1,12.8,15.8,44248,west_north_central,37.384041,-89.684454
cass,mo,127.9,42.8,59,70.1,22.1,9.2,63031,west_north_central,38.647004,-94.354823
cedar,mo,90.8,39.6,72,78.3,18.9,25.5,30816,west_north_central,37.723852,-93.856614
christian,mo,120.6,35.8,103.4,63,25.5,11.4,51394,west_north_central,36.969572,-93.188854
clay,mo,130.2,39,128.8,79,16.5,10,60641,west_north_central,39.310521,-94.420865
clinton,mo,117.7,36.6,108.2,83.5,17.1,11.5,52461,west_north_central,39.60178,-94.404594
cole,mo,141.4,38.4,114.5,64,17.2,13.7,52023,west_north_central,38.505414,-92.2816
cooper,mo,142.7,46.6,103.6,69,19.5,15.5,44397,west_north_central,38.84354,-92.810119
crawford,mo,123.3,53.6,82.1,93.1,24.4,20.1,37299,west_north_central,37.976377,-91.303961
dallas,mo,112.8,46.1,90.3,79.2,23,21.7,37540,west_north_central,37.680407,-93.023655
dent,mo,92.5,42.8,63.3,74.4,15.7,23,34761,west_north_central,37.60663,-91.507883
douglas,mo,69.5,40.8,90,51.9,34.9,22.5,31289,west_north_central,36.932598,-92.498806
franklin,mo,137.9,41.5,109.7,76.9,28.1,10.8,51138,west_north_central,38.411144,-91.074994
gasconade,mo,115.1,47.2,110.7,64,21.8,15.8,41270,west_north_central,38.440867,-91.507933
greene,mo,124.5,39,105.5,69.8,17.7,20.2,38525,west_north_central,37.258049,-93.34199
henry,mo,103.9,51.8,95.3,100.3,25,18.4,39666,west_north_central,38.385163,-93.79275
hickory,mo,77.5,35,59.2,73.4,23.4,24.7,30040,west_north_central,37.940786,-93.320721
howell,mo,83.6,49.9,62.2,81.4,12.9,27.6,31665,west_north_central,36.774014,-91.886542
iron,mo,131.2,53.2,107.5,103.3,34.7,22,32994,west_north_central,37.555149,-90.77349
jackson,mo,128.6,41.6,85.6,75.3,16.3,17.2,46802,west_north_central,39.008502,-94.346091
jasper,mo,116,50.4,85.5,85.8,13.5,18.3,40530,west_north_central,37.203547,-94.340605
jefferson,mo,113.9,46.4,96.1,85.9,20.7,11.5,55305,west_north_central,38.261071,-90.537689
johnson,mo,114.4,46.7,118.1,66.1,24.2,17.7,45011,west_north_central,38.744085,-93.806367
laclede,mo,100.1,41.7,108.2,76.5,13.3,22.1,36632,west_north_central,37.658323,-92.590349
lafayette,mo,113.3,44.4,78.8,73.9,15.3,12.7,46878,west_north_central,39.065588,-93.785543
lawrence,mo,109.3,48.7,86.4,66.5,17.4,18.6,38724,west_north_central,37.106351,-93.832937
lincoln,mo,113,46.1,88.5,87.7,21.8,11.9,54144,west_north_central,39.058019,-90.960045
macon,mo,148,49.1,126,41.9,23.7,18.8,38110,west_north_central,39.830802,-92.564608
madison,mo,80.9,40.8,107.3,106.8,36.3,21.4,33631,west_north_central,37.478096,-90.345026
marion,mo,137.5,53.7,118.5,87.9,25.7,16.8,40981,west_north_central,39.805965,-91.622349
miller,mo,96.5,50,75.1,88.8,14.4,20.5,36552,west_north_central,38.21453,-92.428408
montgomery,mo,127.6,48,124.7,83,25.5,15.3,39750,west_north_central,38.941491,-91.470209
morgan,mo,91.4,47,92.8,85,10.2,22,32761,west_north_central,38.42374,-92.885985
newton,mo,71.3,33.5,55.7,57.8,5.7,16.1,41440,west_north_central,36.905509,-94.339247
nodaway,mo,97.8,32.4,117.8,73.5,17.7,18.5,41952,west_north_central,40.360774,-94.883434
ozark,mo,81.6,39.1,67.3,78.9,21.5,26.2,30799,west_north_central,36.649322,-92.444664
perry,mo,131.7,42.5,88.6,75.1,20.1,12.7,53798,west_north_central,37.707137,-89.824411
pettis,mo,120,43.4,130,71.2,15.6,20.1,39527,west_north_central,38.728289,-93.285096
phelps,mo,111.8,47.7,77.6,71.7,10.9,16.4,38930,west_north_central,37.877129,-91.792365
pike,mo,150,53.4,127.2,94.3,22.4,19.8,39499,west_north_central,39.343835,-91.171363
platte,mo,121.2,35.3,109.8,59.8,16.3,7.7,68411,west_north_central,39.380503,-94.773589
polk,mo,111.6,45.1,94.3,66,14.5,20,38023,west_north_central,37.616479,-93.400533
pulaski,mo,131.8,54.8,127.4,103.4,12.4,15.1,49499,west_north_central,37.824625,-92.207663
randolph,mo,106.2,45,95.9,84.8,14.6,22.4,38988,west_north_central,39.440168,-92.497078
ray,mo,127.9,51.1,118.1,92.8,11.1,13.2,52430,west_north_central,39.352414,-93.989884
saline,mo,112.6,52.5,96.4,74.3,12.5,18.4,38230,west_north_central,39.136839,-93.201851
scott,mo,108.8,55.3,108.4,99,19.4,18.4,40441,west_north_central,37.053046,-89.568515
st. charles,mo,133.2,36.4,119.6,73.7,27.1,6.4,70468,west_north_central,38.781917,-90.674897
st. clair,mo,80.4,29.9,55.5,73.6,21.4,26.4,30612,west_north_central,38.037178,-93.775976
st. francois,mo,139.4,52.3,87.7,106.8,21.3,20.7,37696,west_north_central,37.810283,-90.472268
st. louis,mo,148.3,43.6,131.5,69,21.3,10.9,59284,west_north_central,38.640689,-90.44342
st. louis city,mo,124.4,48,126.4,88.9,10.8,27.2,34346,west_north_central,38.635775,-90.245172
ste. genevieve,mo,91.6,50.5,93.3,53.6,16.4,12.3,48266,west_north_central,37.894404,-90.194424
stoddard,mo,107.6,61.3,115.6,93.4,9.1,16.3,37689,west_north_central,36.855622,-89.94431
stone,mo,103.5,34.4,84,66.5,14,16.1,39018,west_north_central,36.746943,-93.456001
taney,mo,115.3,35.1,92.9,80.6,22.3,19.7,34860,west_north_central,36.654735,-93.041107
texas,mo,88.8,45.4,52.4,71,12,25.4,34266,west_north_central,37.317307,-91.965055
warren,mo,114.3,37.2,115.5,76,16.1,11.7,52517,west_north_central,38.764616,-91.160693
webster,mo,101.4,43.2,134.7,73.9,20.9,19.5,44069,west_north_central,37.280905,-92.875877
wright,mo,139.2,49.4,85.1,83.4,21.9,29.1,29605,west_north_central,37.27014,-92.468704
adams,ms,130.8,62,158.1,69,9.9,30.9,31385,east_south_central,31.482943,-91.353498
alcorn,ms,106.2,43.8,82.3,75.7,25,24.8,33467,east_south_central,34.880771,-88.580265
amite,ms,77.3,36.4,179.1,56.9,17.5,24.1,33571,east_south_central,31.174397,-90.804431
bolivar,ms,123.3,80.5,178.8,76.2,10.1,37.7,29622,east_south_central,33.795539,-90.880401
carroll,ms,65.1,31.9,114.6,72.3,24.7,18.7,37283,east_south_central,33.448526,-89.920198
chickasaw,ms,121,55.4,165.7,78.4,25.4,24.4,32525,east_south_central,33.9208,-88.947864
clarke,ms,96.2,56,142.2,75,25.1,21.8,34141,east_south_central,32.041402,-88.689404
copiah,ms,156.6,56.1,163.5,86.2,19,29.6,32060,east_south_central,31.869237,-90.448799
covington,ms,83.2,42,153.6,78,21.1,28.2,32999,east_south_central,31.633218,-89.552629
desoto,ms,114.1,44.3,119.1,78.4,10.8,12,59043,east_south_central,34.875399,-89.99177
forrest,ms,123.1,43.3,178.4,84.2,23.1,28,34391,east_south_central,31.188869,-89.25786
george,ms,112,41,85.2,74.7,19,18.8,43597,east_south_central,30.862607,-88.644035
grenada,ms,148.7,59.1,194.8,93.4,19.5,25.2,31703,east_south_central,33.769954,-89.802006
hancock,ms,94.3,38,125.4,72.8,16.5,20.2,43870,east_south_central,30.39378,-89.474562
harrison,ms,119.3,45.2,136.6,89.5,19.2,22.7,41657,east_south_central,30.41605,-89.081643
hinds,ms,129.3,54.2,164.3,75.4,10.5,29.7,34826,east_south_central,32.266705,-90.442819
itawamba,ms,99.3,57,113.5,95.6,22.3,19.4,39927,east_south_central,34.279987,-88.361323
jackson,ms,114,42.5,141.5,75.8,23.3,16.4,47813,east_south_central,30.462888,-88.622842
jasper,ms,106.6,52,149.3,78.7,18.3,24.2,33606,east_south_central,32.019113,-89.11886
jefferson davis,ms,115.7,53.1,144.7,68.6,24.3,30.1,27754,east_south_central,31.569641,-89.823002
jones,ms,117,39.9,160.3,62.9,22,21.6,36204,east_south_central,31.622559,-89.168793
lafayette,ms,113.8,41.6,128.5,63.6,22.4,27.8,40749,east_south_central,34.356758,-89.484919
lamar,ms,119.1,38.6,158.3,62.7,23.3,16.4,51337,east_south_central,31.205869,-89.508688
lauderdale,ms,93.3,42.8,146.8,70.4,16.2,26.2,35038,east_south_central,32.404286,-88.662542
lawrence,ms,106.5,53.2,152.8,106,26.1,20.2,36317,east_south_central,31.550203,-90.106995
lee,ms,124.8,50.2,172,91.3,20.5,18,43221,east_south_central,34.289888,-88.680416
lincoln,ms,108.9,47.1,154.2,68.5,19.6,26.9,33632,east_south_central,31.532392,-90.453998
lowndes,ms,117.2,48,174.3,70.2,13.2,23.5,38839,east_south_central,33.472909,-88.443313
madison,ms,133.8,40.4,124.9,70.9,25.9,12.7,64657,east_south_central,32.634655,-90.033756
marion,ms,118.1,53.9,125.2,81.8,24.1,27.5,32628,east_south_central,31.230817,-89.822443
marshall,ms,99,47.5,150.2,80.6,8.3,23.4,36728,east_south_central,34.762266,-89.503056
monroe,ms,116.4,47,172.5,81.6,24.8,22.8,36264,east_south_central,33.892242,-88.480467
neshoba,ms,102.4,41.1,126.5,59.2,25.1,24.9,34719,east_south_central,32.753497,-89.117573
newton,ms,114.1,44.3,136.9,68.2,14,22.1,36904,east_south_central,32.400232,-89.118809
oktibbeha,ms,137.7,44.9,115.3,51.9,16.6,31.2,33594,east_south_central,33.424953,-88.879305
panola,ms,119.4,48.3,145.5,75.2,14.3,25.9,33129,east_south_central,34.363935,-89.950567
pearl river,ms,118.8,48.1,125.5,89,25.4,23.4,41706,east_south_central,30.76858,-89.589783
perry,ms,117.3,53.1,115.8,81.6,28,24,34771,east_south_central,31.172024,-88.992328
pike,ms,114.8,55,192.6,78.4,20.2,28.9,30835,east_south_central,31.174908,-90.404161
pontotoc,ms,117.6,39.4,138,80.5,11.1,16.3,40245,east_south_central,34.225442,-89.03741
prentiss,ms,101.4,39.6,122.1,82.4,21.5,21.1,34219,east_south_central,34.618287,-88.520095
rankin,ms,120.7,46.4,120.1,76.4,25,11.6,55838,east_south_central,32.264124,-89.945798
scott,ms,108.1,70.5,142.6,87.3,21.8,27.2,31850,east_south_central,32.40638,-89.537638
simpson,ms,96.9,53.5,114.3,85.9,15.4,26.9,35039,east_south_central,31.913172,-89.919488
stone,ms,115.3,52.6,142.2,82.2,19,22.4,40294,east_south_central,30.789952,-89.11771
tate,ms,121.1,50.2,119.2,87.8,10.9,19.4,40624,east_south_central,34.650325,-89.94478
tippah,ms,91.1,46.8,94.4,71.8,21.5,24.4,35908,east_south_central,34.7684,-88.908898
tishomingo,ms,110.5,50.9,106.9,78.4,19.1,18.8,35891,east_south_central,34.740434,-88.239323
union,ms,109.8,62.9,138,72.4,19.2,18.8,40148,east_south_central,34.490474,-89.003857
warren,ms,115.2,57.5,127.4,73.7,19.1,26.2,41883,east_south_central,32.35723,-90.852011
washington,ms,114.9,75.8,150,75.8,11.2,34.8,28948,east_south_central,33.283698,-90.947455
winston,ms,90.3,59.9,131.9,83.9,16.4,29.5,30961,east_south_central,33.088491,-89.034429
yazoo,ms,118.6,55.1,147.3,95.3,11.5,41.8,28757,east_south_central,32.78031,-90.396416
carbon,mt,102.3,42,152.9,35.8,29.7,12.6,46413,mountain,45.227386,-109.028016
cascade,mt,148.2,41.8,124.8,66.6,19.3,15.7,43674,mountain,47.307954,-111.347048
custer,mt,96.9,50.8,142.6,70.8,27.5,12.8,43958,mountain,46.252709,-105.571711
deer lodge,mt,102.9,39,115.2,59.5,33.7,17.7,37542,mountain,46.060771,-113.067842
fergus,mt,112.4,40.1,129.5,58.5,32.3,14.4,41111,mountain,47.26358,-109.224485
flathead,mt,125.6,38.2,175.9,58.4,33.1,16.7,46885,mountain,48.295127,-114.049674
gallatin,mt,142.3,32.5,133.6,37.1,31.3,14,56680,mountain,45.54039,-111.170369
hill,mt,131.9,46,111.4,64.4,18.7,18.5,43244,mountain,48.628218,-110.111245
jefferson,mt,112.6,42.9,95.9,71.9,30.5,10.5,59001,mountain,46.148451,-112.093785
lake,mt,135.2,46.6,124.7,52.6,35,20.3,39219,mountain,47.645906,-114.089374
lewis and clark,mt,108,42.2,106.7,65.2,24.7,12.6,53982,mountain,47.122443,-112.390455
lincoln,mt,97.9,33.1,116.8,71.4,20.6,17.6,34926,mountain,48.542475,-115.405083
madison,mt,86.6,34.1,67.9,44.9,32.7,12.2,44046,mountain,45.300688,-111.920254
missoula,mt,120.2,34.1,111.7,56.9,24.5,17.4,45895,mountain,47.036526,-113.92374
park,mt,136,29.8,120.5,42.8,25,13.8,42439,mountain,45.488382,-110.526663
ravalli,mt,122.5,29.5,105.5,48.9,22.5,19.8,39487,mountain,46.081674,-114.120759
sanders,mt,123.3,34.7,101,62.1,27,21.9,34847,mountain,47.674788,-115.13331
silver bow,mt,99.1,44.1,90.6,56,28.1,20,40691,mountain,45.902404,-112.656713
stillwater,mt,131.9,43,146,49.2,29.7,9.5,58109,mountain,45.669053,-109.395217
yellowstone,mt,119.6,38.1,141.2,60.9,24.7,12.9,52079,mountain,45.937335,-108.274418
alamance,nc,140,37,137.8,71.3,34.5,19.8,43001,south_atlantic,36.044057,-79.399471
alexander,nc,123.3,39.2,113.1,75.7,20.5,14,46064,south_atlantic,35.921023,-81.177016
alleghany,nc,115,43.3,119.2,62.4,35.6,21.2,37086,south_atlantic,36.491339,-81.12719
anson,nc,135.7,44.3,110.3,80.5,10.7,28.8,33443,south_atlantic,34.973826,-80.102726
ashe,nc,108.5,36.4,88.9,70.1,29.4,22.4,35155,south_atlantic,36.434157,-81.500343
avery,nc,128.1,39.6,90.5,65.5,27.2,20.4,34933,south_atlantic,36.076607,-81.922473
beaufort,nc,131.9,47.5,152,83.5,25,20.5,39043,south_atlantic,35.485833,-76.845161
bladen,nc,82.7,50.1,101.4,64.1,14.5,27.1,33971,south_atlantic,34.614313,-78.563184
brunswick,nc,109.5,31.9,96.1,69.8,17.4,16.1,47799,south_atlantic,34.038987,-78.227329
buncombe,nc,141.3,35.5,137.9,66.2,24.5,15.7,45738,south_atlantic,35.611225,-82.530101
burke,nc,118.2,51.7,105.8,83.1,26.9,20.6,36150,south_atlantic,35.749522,-81.704702
cabarrus,nc,131.5,38.5,132.5,76.9,24.5,12.1,55046,south_atlantic,35.386906,-80.552061
caldwell,nc,118,40.2,92,82.9,25.8,18.3,34811,south_atlantic,35.952967,-81.546549
carteret,nc,125.3,41.9,104.2,76.1,31.5,15.2,46227,south_atlantic,34.864013,-76.532491
caswell,nc,121.4,46.4,146.6,70.4,18.5,25.5,37122,south_atlantic,36.39335,-79.333594
catawba,nc,126.7,39.5,111.4,68.8,24.2,16.5,43777,south_atlantic,35.662606,-81.214476
chatham,nc,138,36.4,104.2,53,31.4,15.6,56981,south_atlantic,35.70258,-79.255349
cherokee,nc,131.1,32.7,83.5,79.1,28.2,22.5,34476,south_atlantic,35.133836,-84.063471
chowan,nc,129.5,39.5,143.4,66.1,18.4,22.2,39143,south_atlantic,36.126563,-76.602159
clay,nc,112.5,40.4,136.6,69.3,25.9,19.3,37078,south_atlantic,35.05719,-83.75021
cleveland,nc,137,47.6,151.8,72.3,24.7,19.6,40528,south_atlantic,35.334112,-81.55561
columbus,nc,93,37.2,128.6,82.6,13.8,25.3,35026,south_atlantic,34.265439,-78.655096
craven,nc,120.9,34.4,131.2,81,26.6,16.6,45022,south_atlantic,35.117223,-77.082634
cumberland,nc,122.5,36.3,139.2,73.3,15.9,18,44038,south_atlantic,35.048592,-78.827438
currituck,nc,108.8,31.7,110.6,78.6,23.2,11.7,57577,south_atlantic,36.367243,-75.936833
dare,nc,131.8,40.3,121.8,66.3,27.1,11.1,52083,south_atlantic,35.66216,-75.687141
davidson,nc,126.1,42.1,125.6,83.9,30.2,19.3,40424,south_atlantic,35.793278,-80.212685
davie,nc,130.1,37.7,125,81.6,29.2,13.9,49708,south_atlantic,35.929158,-80.544468
duplin,nc,111.5,37.4,100.5,62,12.1,25.4,38106,south_atlantic,34.936276,-77.932936
durham,nc,154.2,35.6,126.3,61.1,18.4,17,52331,south_atlantic,36.035998,-78.876324
edgecombe,nc,118.4,35,148.9,65.8,11.8,27.3,33080,south_atlantic,35.912978,-77.597074
forsyth,nc,136.2,36.3,156.4,70.9,28.4,20.5,46163,south_atlantic,36.130485,-80.256365
franklin,nc,126.1,41.1,134.9,76.3,20.8,18.4,39312,south_atlantic,36.082789,-78.285614
gaston,nc,127.1,47,119.9,87.2,19.3,19.2,42461,south_atlantic,35.294369,-81.180245
graham,nc,135.4,43.8,83.8,48.8,31.4,24.7,33553,south_atlantic,35.35016,-83.833558
granville,nc,118.6,49.8,128.7,82.3,17.2,15.3,48680,south_atlantic,36.304024,-78.653022
greene,nc,91.4,32.2,137.8,70.2,16.3,23.3,39481,south_atlantic,35.485411,-77.67587
guilford,nc,141.6,36.5,166.4,70.3,27.3,19.2,46093,south_atlantic,36.079451,-79.789013
halifax,nc,133,44.4,138.9,68.9,9.2,31.6,32597,south_atlantic,36.257504,-77.651882
harnett,nc,127.4,40.2,115,86.3,20,18.5,45257,south_atlantic,35.3686,-78.869314
haywood,nc,114.7,32.4,123.6,70.2,34.1,20.4,39320,south_atlantic,35.556054,-82.982243
henderson,nc,132.4,42.5,125.8,59.9,28.8,15.5,44561,south_atlantic,35.336292,-82.479907
hoke,nc,107.3,29.5,155.2,96.9,12.2,23.2,43987,south_atlantic,35.017361,-79.237106
iredell,nc,139.1,40.1,138.8,73.9,21.2,12.7,49983,south_atlantic,35.807083,-80.873435
jackson,nc,111.2,49.5,116.2,64.9,26,24.2,40511,south_atlantic,35.287395,-83.140834
johnston,nc,113.2,35.7,117.6,70.1,21.3,16.6,50904,south_atlantic,35.51761,-78.36564
lee,nc,129.6,45.2,112.3,76.6,22,17.9,48061,south_atlantic,35.475169,-79.171426
lenoir,nc,141,44.9,144.4,73,19.7,21.7,34127,south_atlantic,35.239151,-77.641273
lincoln,nc,126.9,33.9,120.6,71.6,24.2,14.6,50537,south_atlantic,35.486179,-81.223866
macon,nc,137.4,47.6,106.9,75.4,21.6,20.4,37219,south_atlantic,35.150376,-83.422099
madison,nc,124,44.2,102.4,56.5,22,19.9,37479,south_atlantic,35.858088,-82.705761
martin,nc,139.4,43.6,138.3,68,18.6,22.6,34761,south_atlantic,35.8416,-77.107082
mcdowell,nc,119.6,53.3,110.9,88.6,25.8,21.9,36840,south_atlantic,35.681244,-82.048702
mecklenburg,nc,135.1,35.1,145.1,59.4,21.6,15.5,54657,south_atlantic,35.246699,-80.832759
mitchell,nc,108.1,38.9,101.5,81.4,21.9,18.3,38303,south_atlantic,36.013291,-82.163466
montgomery,nc,104.1,52.3,151.2,71.3,18.2,22.1,35613,south_atlantic,35.33246,-79.90547
moore,nc,131.7,34.3,135.5,73.7,39.2,14.3,50169,south_atlantic,35.310721,-79.481308
nash,nc,125.5,40.7,110.3,72.8,17,16.6,41575,south_atlantic,35.967215,-77.986482
new hanover,nc,123.8,31.5,99.7,66.2,18.3,18.9,48651,south_atlantic,34.181408,-77.865614
northampton,nc,128.9,46.1,162.2,72.4,9.2,29,31732,south_atlantic,36.417656,-77.39674
onslow,nc,125.1,38.1,112.7,85.5,19.3,16.9,45213,south_atlantic,34.709432,-77.415949
orange,nc,133.9,34.5,113.3,57.5,29.5,15.5,59472,south_atlantic,36.06132,-79.120559
pamlico,nc,140.8,26.7,119.7,83.3,23.5,19,43517,south_atlantic,35.151521,-76.667161
pasquotank,nc,122.7,50.1,164.4,68.8,19,21.8,40094,south_atlantic,36.264899,-76.249135
pender,nc,127.2,34.7,99.6,70.9,16.4,18.3,44949,south_atlantic,34.514939,-77.888868
perquimans,nc,106,37.8,130.5,68.9,31.5,20.9,42504,south_atlantic,36.177201,-76.407674
person,nc,111.3,42.4,128.9,84.6,29.6,18.4,42091,south_atlantic,36.390115,-78.971714
pitt,nc,127.3,32.8,125.6,62.9,16.5,25.4,40940,south_atlantic,35.59352,-77.374649
polk,nc,98,33.2,85.9,50.3,18.6,14.7,43665,south_atlantic,35.279288,-82.169669
randolph,nc,128.8,40.1,141,86.5,27.9,19.8,40896,south_atlantic,35.710326,-79.806162
richmond,nc,127.8,42,134.1,85.7,21.8,27.3,32825,south_atlantic,35.005944,-79.747834
robeson,nc,92.9,37.5,156.8,69.2,8.5,30.7,30248,south_atlantic,34.640087,-79.103537
rockingham,nc,135.3,47.2,144.1,89.9,26.2,21.2,40446,south_atlantic,36.39608,-79.775147
rowan,nc,131.5,46.9,136.6,85.9,23.2,18.8,41475,south_atlantic,35.63954,-80.524641
rutherford,nc,123.3,41.9,105,79.4,21.9,23.9,35544,south_atlantic,35.402247,-81.920087
sampson,nc,115.8,33.4,110.6,77.7,16,24.3,35890,south_atlantic,34.991641,-78.371511
scotland,nc,132.3,50,169.2,84.5,17.2,34.1,32314,south_atlantic,34.840898,-79.480432
stanly,nc,120.5,41.2,121.2,80.4,29.8,17.7,42801,south_atlantic,35.31199,-80.250924
stokes,nc,109.8,36.7,124.7,90.6,28.8,14.4,44552,south_atlantic,36.401895,-80.239608
surry,nc,121.9,42.1,123.3,82.9,30.8,21.3,36221,south_atlantic,36.414682,-80.687488
swain,nc,147.6,58.7,87.9,95.5,20.5,23.2,34552,south_atlantic,35.486726,-83.492744
transylvania,nc,110.9,35.3,107.4,53.6,23.5,15.6,40578,south_atlantic,35.202147,-82.7983
union,nc,128.7,34.5,115.7,62.9,24.8,10.3,63912,south_atlantic,34.988388,-80.530728
vance,nc,131.8,55.4,132.5,71,12.6,27.3,35565,south_atlantic,36.364762,-78.408331
wake,nc,138.8,33.7,138.4,55.9,25.2,10.9,65433,south_atlantic,35.790124,-78.650225
warren,nc,116.3,55.4,136.5,81.7,11.4,27.2,33767,south_atlantic,36.396593,-78.106897
watauga,nc,114.6,29.4,96.6,51.4,30.9,27.3,38380,south_atlantic,36.231098,-81.696373
wayne,nc,119.6,45.5,138.6,76.6,16.6,20.8,41526,south_atlantic,35.363793,-78.004131
wilkes,nc,99.2,37.5,132.9,77.2,23.4,23.1,35895,south_atlantic,36.206212,-81.162922
wilson,nc,117.4,38.1,108.1,71.2,18.7,20.9,40772,south_atlantic,35.705027,-77.918623
yadkin,nc,107.2,31.9,137.4,82.2,25.7,18.9,40998,south_atlantic,36.160538,-80.665337
yancey,nc,123,30.5,108.1,86.3,29.3,21.3,35866,south_atlantic,35.898885,-82.307554
barnes,nd,132,40.9,142.5,64.5,27.6,10.9,52035,west_north_central,46.936105,-98.071579
burleigh,nd,133.7,46.3,139.3,52.2,17.8,8.3,63503,west_north_central,46.97739,-100.468733
cass,nd,121,36.9,130.3,59.8,30.3,13.2,53077,west_north_central,46.932972,-97.248044
grand forks,nd,145.9,45.3,128,59.7,19,15.1,49697,west_north_central,47.921919,-97.456933
morton,nd,152.4,57.8,129,68.7,19.9,8.3,59650,west_north_central,46.716057,-101.281167
richland,nd,94.5,64.9,106.5,45.2,20.2,10.6,54312,west_north_central,46.264656,-96.948279
stark,nd,97.8,56.2,141.4,42.7,12.8,8.7,69566,west_north_central,46.81068,-102.655129
stutsman,nd,121.2,48.9,143.1,56.5,33,12.1,50941,west_north_central,46.979249,-98.958828
traill,nd,120.5,37.8,152.3,62,34.8,9.3,57006,west_north_central,47.454185,-97.161581
ward,nd,133.6,48.1,143.5,64.6,22,8.9,56192,west_north_central,48.221746,-101.541828
williams,nd,90.2,55.7,100.9,53.9,18.7,7.8,84237,west_north_central,48.343667,-103.480278
adams,ne,132.1,50.7,115.5,62.7,30.6,11.4,52267,west_north_central,40.524469,-98.501209
buffalo,ne,143.1,40.2,111,49.3,14.8,12.7,52333,west_north_central,40.855152,-99.074966
cass,ne,124,46.9,106.9,65.5,22.2,8.2,63738,west_north_central,40.909722,-96.140866
dakota,ne,100,49.3,129.6,73,16.7,14.4,45631,west_north_central,42.391112,-96.564513
dawson,ne,86.9,53.1,103.3,45.9,14,14.8,44976,west_north_central,40.869936,-99.819566
dodge,ne,142.6,46.2,146.9,70.2,15.7,11.3,48671,west_north_central,41.577886,-96.653983
douglas,ne,131.4,43.7,122.6,69.5,21.5,15.2,51959,west_north_central,41.295352,-96.15448
gage,ne,125.7,41,103.1,59.5,12,11.3,45212,west_north_central,40.26193,-96.689442
hall,ne,106.9,49.5,151.9,57.8,18.2,14.9,49750,west_north_central,40.872572,-98.502174
lancaster,ne,125,38.5,101,57.3,17.6,14.8,52275,west_north_central,40.784174,-96.687755
lincoln,ne,94.1,40.5,113.5,57.1,15.8,12.6,52395,west_north_central,41.047767,-100.745234
madison,ne,120,51.8,169.3,61.4,25.2,12.5,45738,west_north_central,41.916698,-97.600779
platte,ne,114.9,46.4,139.9,54.9,18.6,10.2,52368,west_north_central,41.571287,-97.521157
saline,ne,127.3,71.9,135.6,79.5,23.8,12,49047,west_north_central,40.524061,-97.140909
sarpy,ne,130,42.9,108.3,65.1,24.3,6.3,67740,west_north_central,41.112927,-96.111992
saunders,ne,97.1,44,127.5,60.8,15.9,8.7,61174,west_north_central,41.226371,-96.637401
scotts bluff,ne,111.9,47.1,113.7,45.9,22.9,15.2,43406,west_north_central,41.850608,-103.707947
seward,ne,100.3,45.6,131,44.2,16.8,10.2,59053,west_north_central,40.872386,-97.13951
washington,ne,136.9,44.7,116.1,43.1,24.9,7.7,66160,west_north_central,41.531038,-96.222029
york,ne,93.7,20.4,91.1,36.8,26,9.8,56687,west_north_central,40.872746,-97.597107
belknap,nh,163.7,39.8,147.4,65.6,31.7,9.3,57568,new_england,43.518692,-71.423357
carroll,nh,124,37.4,138.8,65.8,27.4,10.4,50598,new_england,43.873914,-71.20277
cheshire,nh,131.7,39.8,104.5,66.6,23.4,11.4,52246,new_england,42.919325,-72.251178
coos,nh,118.8,37.3,113.1,69.9,28.5,14.8,40917,new_england,44.689599,-71.305417
grafton,nh,128.8,33.2,107.3,56.4,31,11.1,55131,new_england,43.940738,-71.82055
hillsborough,nh,138.5,37.4,143.6,66.2,24.4,9.3,67162,new_england,42.915306,-71.716009
merrimack,nh,145.4,37.1,137.7,66.9,31.1,9.1,64068,new_england,43.297654,-71.680191
rockingham,nh,140,39.1,146.2,72.5,27.4,5.9,74785,new_england,42.984541,-71.088967
strafford,nh,136.1,39.3,126.5,75,20.5,9.8,59290,new_england,43.297428,-71.029401
sullivan,nh,125.8,38.1,74.3,72.6,25.3,10.4,52114,new_england,43.361217,-72.222404
atlantic,nj,132.9,43.5,135.4,69.9,24.2,17.1,51668,middle_atlantic,39.468834,-74.633733
bergen,nj,134.8,39.2,138.9,50.9,17.9,8.1,81615,middle_atlantic,40.959772,-74.074409
burlington,nj,136.3,48.8,162.4,65.1,27.3,6.2,76868,middle_atlantic,39.877693,-74.668203
camden,nj,145.4,48.5,160,71.9,20,14.7,57641,middle_atlantic,39.803532,-74.959756
cape may,nj,126.8,48.3,170,83.5,40.8,10.8,56520,middle_atlantic,39.085127,-74.849982
cumberland,nj,113,52.2,145.4,73.4,17.3,20.1,45850,middle_atlantic,39.328069,-75.129342
essex,nj,121.7,42.3,176,50.9,12.5,17.7,53358,middle_atlantic,40.78707,-74.246865
gloucester,nj,135.5,49.3,156.3,80.5,25.7,9.4,71137,middle_atlantic,39.717313,-75.14167
hudson,nj,105.7,43.4,117.9,48.8,7,19.4,55699,middle_atlantic,40.730542,-74.075459
hunterdon,nj,150.6,40.6,113.5,54.4,35.1,4.1,107203,middle_atlantic,40.567285,-74.912219
mercer,nj,137.4,43.8,153.5,59.1,24.1,11.8,70575,middle_atlantic,40.283405,-74.701689
middlesex,nj,131.2,42.3,139,53.4,17.1,9.4,76515,middle_atlantic,40.44004,-74.408892
monmouth,nj,144.6,43.7,158.5,63.9,32.4,7.8,83424,middle_atlantic,40.287552,-74.158147
morris,nj,142.6,38.6,157.4,49.6,26.9,4.9,99950,middle_atlantic,40.86203,-74.544444
ocean,nj,126.4,47,140.8,71.4,33.2,10.5,59888,middle_atlantic,39.866,-74.250026
passaic,nj,119.2,41.4,147.2,53.8,13.3,16.6,57426,middle_atlantic,41.034373,-74.300888
salem,nj,120.4,45.4,165.4,72.8,32.5,15,58483,middle_atlantic,39.576585,-75.357911
somerset,nj,134.5,38.6,145.9,48.7,24.5,5.7,96947,middle_atlantic,40.563507,-74.616312
sussex,nj,126.7,43.4,132.5,64.2,27,6.1,85747,middle_atlantic,41.139415,-74.690754
union,nj,129.1,42.9,153.3,47.9,16,11.5,64272,middle_atlantic,40.659794,-74.308587
warren,nj,135,44.4,149.7,65.4,23.7,8.7,68011,middle_atlantic,40.857246,-74.997022
bernalillo,nm,130.1,35.6,101.6,39.4,20,18.7,48053,mountain,35.051314,-106.670171
chaves,nm,83.5,31,116.6,47.5,12.3,21.2,41388,mountain,33.36319,-104.467001
colfax,nm,96.7,36.4,76.4,38.1,20.7,20.1,37152,mountain,36.606119,-104.646863
curry,nm,96.6,32.9,95.9,46.8,11.5,21.1,39186,mountain,34.574173,-103.346897
dona ana,nm,97.7,32.7,125.4,42.6,14.1,27,36831,mountain,32.35268,-106.8328
eddy,nm,77.6,34.9,97.9,47.3,11.4,15.1,49865,mountain,32.471488,-104.304311
grant,nm,109,31.5,85.4,44.7,15.3,22.4,39220,mountain,32.739014,-108.382246
lea,nm,85.9,33,86.6,57.7,8.7,14.8,53556,mountain,32.792185,-103.412446
lincoln,nm,104.6,33.3,84,45.4,25.3,18.8,40756,mountain,33.745241,-105.459248
los alamos,nm,133.8,22.7,150.2,26.5,39,4,110930,mountain,35.869367,-106.307288
luna,nm,96.4,38.6,133.2,56.8,15.8,31.2,28040,mountain,32.182151,-107.749774
mckinley,nm,69,39.6,91.1,13.5,8.4,40.3,27790,mountain,35.580614,-108.261927
otero,nm,110.8,32.3,77.4,58.5,15.1,21.3,41960,mountain,32.613156,-105.741683
rio arriba,nm,91.6,41.5,96.4,34.8,7.6,24.8,36716,mountain,36.509571,-106.693109
san juan,nm,94.5,31,89.4,44,11.5,21.8,44417,mountain,36.508471,-108.320595
sandoval,nm,125.5,35,95.6,40.4,21.3,15.3,56190,mountain,35.688545,-106.865837
santa fe,nm,123,29.5,90.4,31.7,19.4,18.1,51697,mountain,35.506856,-105.976121
sierra,nm,102.4,36.8,100.7,55.1,21.7,26.9,29680,mountain,33.130466,-107.192497
socorro,nm,128.6,46.9,92.5,47.8,16.9,27.9,32090,mountain,34.007241,-106.930329
taos,nm,119.5,35.3,93.8,35,10.1,26.2,33021,mountain,36.578298,-105.630966
valencia,nm,104,38,97.4,50.8,17.6,23.4,41412,mountain,34.71545,-106.809107
albany,ny,142.2,40.5,127,73,20,13.7,55778,middle_atlantic,42.600176,-73.973559
allegany,ny,135.2,47.3,110.8,76.9,17,16.7,41849,middle_atlantic,42.257391,-78.027561
bronx,ny,108.5,42.6,172.2,50.4,4.6,30.7,33079,middle_atlantic,40.849208,-73.85307
broome,ny,132.3,41.6,140,61.7,24.5,17.7,45142,middle_atlantic,42.160217,-75.819618
cattaraugus,ny,143.9,49.4,140.7,75.8,18.1,18.9,40936,middle_atlantic,42.248633,-78.67885
cayuga,ny,120.8,39.4,116.3,77.7,26.8,14.2,48976,middle_atlantic,43.010327,-76.574358
chautauqua,ny,123,45.3,256.8,67.9,23.1,19.1,40468,middle_atlantic,42.302941,-79.405758
chemung,ny,123.3,40.1,130.7,77,23.7,17,45337,middle_atlantic,42.141247,-76.760026
chenango,ny,127.2,53.8,111.4,71.9,29.1,16.8,44328,middle_atlantic,42.493511,-75.611579
clinton,ny,110.5,38.8,121.4,95.1,19.1,15.7,45900,middle_atlantic,44.746227,-73.678174
columbia,ny,107.6,46.9,102.9,79,19.6,11.8,57094,middle_atlantic,42.250083,-73.631848
cortland,ny,138.2,47.5,126.3,79,14.7,14.6,46163,middle_atlantic,42.595007,-76.070267
delaware,ny,105.3,45.4,89.3,68.9,20.9,17.8,43380,middle_atlantic,42.198088,-74.966466
dutchess,ny,135.9,40.9,132.9,64.7,19.6,9.5,69300,middle_atlantic,41.765148,-73.742862
erie,ny,144.6,41.8,172.2,76.2,26,15.1,51123,middle_atlantic,42.758237,-78.77966
essex,ny,110.6,44.1,105,68,23.8,11.7,46337,middle_atlantic,44.117218,-73.772709
franklin,ny,114.4,44.6,134.7,77.9,21,22.4,42672,middle_atlantic,44.592934,-74.303762
fulton,ny,129.6,43.9,118.7,80,14.7,15.7,42264,middle_atlantic,43.113847,-74.422175
genesee,ny,134.2,42.9,133.9,80.4,26.5,14.7,42641,middle_atlantic,43.000934,-78.193711
greene,ny,132.9,41.6,107.2,72.7,20.3,13.9,50190,middle_atlantic,42.27652,-74.122707
herkimer,ny,115.1,43.8,129.8,71.1,18.1,16.4,42460,middle_atlantic,43.419702,-74.962498
jefferson,ny,115.4,47,135.3,79.6,18.1,15.7,46510,middle_atlantic,43.998846,-76.052107
kings,ny,115.8,44.9,147.7,49.3,9,23.3,47067,middle_atlantic,40.634351,-73.950205
lewis,ny,94.2,55.8,105.7,62.7,27.5,14.8,45926,middle_atlantic,43.784691,-75.448794
livingston,ny,135.2,43.7,129.4,67.2,25.4,15,51901,middle_atlantic,42.728075,-77.775492
madison,ny,121.1,44.1,156.7,79.9,21.4,13.9,51057,middle_atlantic,42.912775,-75.669666
monroe,ny,142.5,38.9,148.8,65.2,24.8,15.5,51722,middle_atlantic,43.309161,-77.680178
montgomery,ny,124.2,48.1,89,81.1,18.9,17.3,43880,middle_atlantic,42.902282,-74.439683
nassau,ny,145.2,38.7,152,58.4,24.3,6.5,95395,middle_atlantic,40.732144,-73.585536
new york,ny,134.2,36,140.6,50.4,18.7,19,71443,middle_atlantic,40.773465,-73.9704
