name,state,breast,colorectal,prostate,poverty,income,region,lat,lon
charlottesville city,va,265.9,81.8,234.6,22.9,45320,south_atlantic,38.037425,-78.485572
covington city,va,221.9,72.3,124.5,16.9,33904,south_atlantic,37.778616,-79.986756
bracken,ky,119.8,78.7,115.3,16.2,43222,east_south_central,38.688814,-84.09019
harrisonburg city,va,194.9,49.1,150.5,29.3,37588,south_atlantic,38.436188,-78.873479
powell,ky,131.8,68.4,112.3,29.6,31923,east_south_central,37.831146,-83.823775
union,fl,195.5,118.8,237.4,23.8,40841,south_atlantic,30.043839,-82.371442
clinton,ky,119.6,57.7,101.6,27.6,27443,east_south_central,36.727482,-85.136014
kingsbury,sd,163.8,62.0,169.7,9.7,50045,west_north_central,44.369585,-97.491476
waynesboro city,va,156.1,49.6,200.1,16.7,42434,south_atlantic,38.067321,-78.901209
nantucket,ma,198.0,33.2,102.9,8.8,71259,new_england,41.301241,-70.128113
mason,ky,131.3,65.8,125.0,20.7,42329,east_south_central,38.595173,-83.824245
leslie,ky,113.8,57.6,88.7,29.2,29008,east_south_central,37.094058,-83.381155
buena vista city,va,134.3,48.3,134.3,17.2,36915,south_atlantic,37.731581,-79.356527
staunton city,va,155.5,54.9,177.2,15.8,39712,south_atlantic,38.159298,-79.060842
galax city,va,160.4,66.2,186.0,22.8,33737,south_atlantic,36.666043,-80.917597
sullivan,pa,140.9,42.3,122.7,14.3,41668,middle_atlantic,41.446159,-76.512141
petersburg city,va,180.1,54.1,299.1,28.1,32623,south_atlantic,37.204171,-77.391445
salem city,va,175.6,40.5,139.8,10.1,47837,south_atlantic,37.286409,-80.055385
yalobusha,ms,125.5,67.6,181.1,26.9,32660,east_south_central,34.028212,-89.707632
lewis,tn,135.7,34.9,112.2,21.3,35097,east_south_central,35.527281,-87.493096
sargent,nd,166.8,74.9,163.1,6.5,58672,west_north_central,46.107942,-97.630718
st. francois,mo,139.4,52.3,87.7,20.7,37696,west_north_central,37.810283,-90.472268
dallam,tx,131.4,67.9,144.0,14.1,42378,west_south_central,36.277891,-102.602223
clark,mo,89.1,46.4,97.3,17.5,39712,west_north_central,40.410356,-91.738397
grayson,ky,121.4,70.2,86.9,25.1,32813,east_south_central,37.460819,-86.343877
mccreary,ky,141.5,44.9,79.9,40.7,24406,east_south_central,36.737142,-84.484174
clay,wv,139.1,55.5,114.7,23.6,32640,south_atlantic,38.462532,-81.075087
logan,wv,109.4,56.3,94.4,22.2,35773,south_atlantic,37.831534,-81.93534
wyoming,pa,146.8,41.3,120.5,11.3,47012,middle_atlantic,41.518329,-76.016551
musselshell,mt,121.2,67.8,115.0,17.0,39403,mountain,46.496561,-108.398088
trimble,ky,110.8,51.2,82.2,16.1,45394,east_south_central,38.613033,-85.337568
holmes,ms,148.3,87.7,153.8,45.7,22674,east_south_central,33.123514,-90.09205
catahoula parish,la,125.0,73.3,182.5,24.3,33557,west_south_central,31.666168,-91.847072
estill,ky,131.1,55.3,94.0,28.1,30388,east_south_central,37.692482,-83.96433
lawrence,ky,98.2,69.2,84.8,25.2,33469,east_south_central,38.067879,-82.734755
tucker,wv,123.4,68.9,129.9,16.3,37591,south_atlantic,39.113595,-79.564974
garrard,ky,139.3,64.7,99.6,19.3,42853,east_south_central,37.639578,-84.537633
charles mix,sd,156.5,57.1,95.1,24.3,37996,west_north_central,43.207907,-98.587894
fredericksburg city,va,157.0,38.9,211.5,17.5,48152,south_atlantic,38.299193,-77.487069
wyoming,ny,149.4,54.0,157.8,11.8,51676,middle_atlantic,42.702385,-78.22444
mercer,ky,130.4,60.5,127.7,16.4,43903,east_south_central,37.811033,-84.874435
allegany,md,128.6,51.4,124.8,18.6,39994,south_atlantic,39.621481,-78.698902
greene,pa,139.6,55.6,87.1,16.3,45156,middle_atlantic,39.8538,-80.222874
clark,ky,132.9,54.3,109.8,17.1,45516,east_south_central,37.970852,-84.147399
mingo,wv,126.4,55.5,103.0,24.9,32431,south_atlantic,37.726404,-82.134761
lewis,wv,116.5,60.7,120.1,17.4,38462,south_atlantic,38.995868,-80.502159
chenango,ny,127.2,53.8,111.4,16.8,44328,middle_atlantic,42.493511,-75.611579
adams,ia,134.0,72.0,99.8,13.2,44004,west_north_central,41.028984,-94.699185
hamilton,ny,135.6,44.1,96.5,12.1,45737,middle_atlantic,43.661122,-74.497355
wayne,mo,124.2,53.6,89.4,26.3,31208,west_north_central,37.112636,-90.461429
roanoke city,va,142.6,59.9,160.8,23.3,37223,south_atlantic,37.278408,-79.958084
piscataquis,me,159.3,42.2,79.9,17.6,36553,new_england,45.837364,-69.284524
gem,id,145.3,40.4,135.8,18.4,44173,mountain,44.061691,-116.397227
greenup,ky,108.3,47.9,104.1,19.0,44581,east_south_central,38.545665,-82.922288
pike,ky,123.1,55.3,65.5,23.0,35071,east_south_central,37.469023,-82.395867
cameron,pa,160.4,60.7,201.7,14.6,37891,middle_atlantic,41.436804,-78.203777
mclean,nd,136.1,72.1,143.0,10.6,53604,west_north_central,47.606957,-101.321827
cook,ga,139.7,44.6,126.5,25.3,32327,south_atlantic,31.153991,-83.430465
wolfe,ky,105.5,71.9,85.4,36.4,25657,east_south_central,37.73932,-83.493175
rockcastle,ky,134.0,45.5,146.7,25.6,33131,east_south_central,37.365178,-84.315941
marion,tn,138.5,49.4,105.7,16.4,42128,east_south_central,35.129347,-85.622034
perry,tn,126.4,43.7,132.1,22.2,33017,east_south_central,35.642632,-87.858968
turner,ga,151.9,77.1,127.6,30.5,31817,south_atlantic,31.716385,-83.624093
richland,mt,162.5,40.9,93.7,7.7,64171,mountain,47.787929,-104.561414
greene,ia,164.0,61.8,124.2,12.8,47936,west_north_central,42.036239,-94.396836
bullitt,ky,142.5,55.7,109.5,10.2,57462,east_south_central,37.970076,-85.695857
marion,mo,137.5,53.7,118.5,16.8,40981,west_north_central,39.805965,-91.622349
ketchikan gateway borough,ak,149.8,53.4,73.5,10.3,62619,pacific,55.492249,-131.033823
bath,ky,136.2,53.9,129.3,26.5,33752,east_south_central,38.144974,-83.742667
jackson,ky,124.3,63.3,128.3,30.3,28759,east_south_central,37.419777,-84.005766
radford city,va,128.0,38.9,115.1,31.3,34635,south_atlantic,37.122935,-80.558245
starke,in,103.7,42.6,109.0,19.4,39552,east_north_central,41.280926,-86.647649
washburn,wi,146.1,47.1,112.5,13.6,43588,east_north_central,45.899179,-91.791235
clay,il,126.5,46.6,126.0,14.2,42369,east_north_central,38.754162,-88.490192
harlan,ky,89.1,56.9,86.0,30.5,25460,east_south_central,36.856974,-83.217952
floyd,ia,158.9,45.7,127.5,12.1,48964,west_north_central,43.059921,-92.789003
calhoun,ia,159.4,50.6,148.4,14.0,47351,west_north_central,42.385185,-94.640414
edmonson,ky,103.0,52.2,102.0,21.2,36324,east_south_central,37.20884,-86.23862
fall river,sd,149.6,44.0,96.0,14.6,39552,west_north_central,43.239388,-103.527561
tunica,ms,146.8,67.3,141.9,32.2,30033,east_south_central,34.65195,-90.375499
whitley,ky,102.1,48.0,119.7,26.3,30878,east_south_central,36.758073,-84.145178
perry,ky,120.9,56.1,107.8,26.9,32300,east_south_central,37.244293,-83.221482
oldham,ky,149.0,39.4,151.2,6.1,86580,east_south_central,38.399442,-85.448366
nelson,ky,130.4,46.5,115.3,14.7,49444,east_south_central,37.805131,-85.465989
carter,ky,132.6,54.1,119.8,22.5,34767,east_south_central,38.318173,-83.049537
grant,ky,129.6,54.4,131.1,20.1,43861,east_south_central,38.648812,-84.624614
monmouth,nj,144.6,43.7,158.5,7.8,83424,middle_atlantic,40.287552,-74.158147
erie,ny,144.6,41.8,172.2,15.1,51123,middle_atlantic,42.758237,-78.77966
hughes,sd,176.9,46.3,176.8,10.3,57538,west_north_central,44.38903,-99.99605
lycoming,pa,144.2,45.8,118.7,14.0,46663,middle_atlantic,41.343382,-77.064506
crawford,mo,123.3,53.6,82.1,20.1,37299,west_north_central,37.976377,-91.303961
camden,nj,145.4,48.5,160.0,14.7,57641,middle_atlantic,39.803532,-74.959756
vilas,wi,128.8,48.6,198.1,14.4,40454,east_north_central,46.052891,-89.51482
johnson,ky,120.2,64.3,104.9,25.7,34593,east_south_central,37.846639,-82.83154
fleming,ky,142.6,66.0,109.0,23.2,35454,east_south_central,38.37011,-83.696647
mercer,il,139.9,44.6,120.2,9.7,53626,east_north_central,41.205339,-90.741408
hopewell city,va,134.9,54.5,179.0,22.6,39440,south_atlantic,37.291362,-77.298544
montgomery,ky,129.3,66.2,108.1,20.0,41326,east_south_central,38.033533,-83.913102
macon,il,131.4,51.0,147.1,18.1,46179,east_north_central,39.859995,-88.961597
vermilion,il,133.8,54.2,140.6,19.6,44085,east_north_central,40.183422,-87.732835
magoffin,ky,92.6,54.7,103.7,29.0,29817,east_south_central,37.706474,-83.064915
cape may,nj,126.8,48.3,170.0,10.8,56520,middle_atlantic,39.085127,-74.849982
suffolk,ny,142.2,42.7,143.1,7.5,84940,middle_atlantic,40.940461,-72.68524
floyd,ky,114.1,58.5,110.0,30.6,31229,east_south_central,37.557109,-82.745704
danville city,va,158.5,67.4,159.3,25.0,30940,south_atlantic,36.583141,-79.40877
gray,tx,146.1,44.2,131.5,14.9,48623,west_south_central,35.401163,-100.812558
humphreys,tn,136.5,42.7,140.5,17.0,41954,east_south_central,36.040819,-87.775633
simpson,ky,124.6,57.8,112.2,18.5,39117,east_south_central,36.741942,-86.582321
nelson,va,145.9,49.9,123.2,15.8,45990,south_atlantic,37.787409,-78.886757
ocean,nj,126.4,47.0,140.8,10.5,59888,middle_atlantic,39.866,-74.250026
adams,ne,132.1,50.7,115.5,11.4,52267,west_north_central,40.524469,-98.501209
belknap,nh,163.7,39.8,147.4,9.3,57568,new_england,43.518692,-71.423357
harrison,mo,125.5,50.1,96.5,19.0,36229,west_north_central,40.354669,-93.992064
columbia,pa,130.6,43.1,120.5,17.1,45564,middle_atlantic,41.048653,-76.40515
warren,ia,144.3,44.5,118.2,7.0,66328,west_north_central,41.334373,-93.561359
middlesex,va,146.1,40.4,139.6,15.5,47399,south_atlantic,37.622708,-76.505913
laurel,ky,107.7,53.2,132.8,22.2,35372,east_south_central,37.11067,-84.1178
gloucester,nj,135.5,49.3,156.3,9.4,71137,middle_atlantic,39.717313,-75.14167
columbia,wi,141.3,48.6,110.8,9.2,57613,east_north_central,43.466607,-89.333739
rush,in,132.3,43.6,87.3,12.8,46910,east_north_central,39.619948,-85.465761
merrimack,nh,145.4,37.1,137.7,9.1,64068,new_england,43.297654,-71.680191
boyd,ky,114.7,48.3,113.1,20.3,41443,east_south_central,38.359572,-82.687726
martin,ky,98.6,64.1,84.7,40.5,26931,east_south_central,37.801577,-82.513293
northampton,pa,137.1,42.2,148.3,10.1,59605,middle_atlantic,40.754231,-75.307418
fulton,ny,129.6,43.9,118.7,15.7,42264,middle_atlantic,43.113847,-74.422175
dukes,ma,181.7,40.5,136.1,9.0,58276,new_england,41.388775,-70.698772
pendleton,ky,125.9,51.6,100.7,16.1,45570,east_south_central,38.695628,-84.360272
clay,ky,119.6,55.5,157.4,42.8,24173,east_south_central,37.159711,-83.714681
nicholas,ky,107.9,61.6,87.9,20.6,37006,east_south_central,38.335599,-84.015325
clinton,il,138.6,52.1,120.2,9.5,61843,east_north_central,38.606452,-89.422485
dawson,mt,135.6,48.8,174.1,11.9,50650,mountain,47.266379,-104.899511
swain,nc,147.6,58.7,87.9,23.2,34552,south_atlantic,35.486726,-83.492744
montgomery,mo,127.6,48.0,124.7,15.3,39750,west_north_central,38.941491,-91.470209
sussex,va,131.9,54.4,161.3,24.0,38948,south_atlantic,36.921752,-77.261795
genesee,ny,134.2,42.9,133.9,14.7,42641,middle_atlantic,43.000934,-78.193711
wapello,ia,125.6,52.4,107.6,19.9,40629,west_north_central,41.030585,-92.40945
plymouth,ma,139.2,41.6,128.8,8.0,75264,new_england,41.987431,-70.737066
king william,va,142.3,55.0,140.0,9.1,61183,south_atlantic,37.706601,-77.088385
washington,ny,103.9,38.8,116.4,15.1,48522,middle_atlantic,43.313703,-73.430759
jefferson,ky,139.1,51.1,133.6,16.1,47495,east_south_central,38.187191,-85.659158
richmond,ny,131.7,46.4,133.0,13.1,68621,middle_atlantic,40.562331,-74.138274
barnes,nd,132.0,40.9,142.5,10.9,52035,west_north_central,46.936105,-98.071579
cattaraugus,ny,143.9,49.4,140.7,18.9,40936,middle_atlantic,42.248633,-78.67885
putnam,ny,140.9,42.3,145.0,5.8,92014,middle_atlantic,41.426662,-73.749514
grundy,il,125.1,50.3,142.0,8.0,68474,east_north_central,41.285087,-88.418495
bradford,pa,124.7,47.0,115.9,13.5,49117,middle_atlantic,41.788668,-76.515453
orleans,ny,123.6,51.0,119.8,15.7,43876,middle_atlantic,43.382282,-78.230444
montgomery,ny,124.2,48.1,89.0,17.3,43880,middle_atlantic,42.902282,-74.439683
scott,tn,105.3,51.0,141.3,29.5,27749,east_south_central,36.428539,-84.503517
pulaski,ky,119.1,56.3,112.4,25.2,34355,east_south_central,37.103927,-84.577176
butte,sd,125.0,39.9,97.6,14.3,41413,west_north_central,44.905841,-103.50804
carbon,pa,125.5,41.1,111.7,14.1,44338,middle_atlantic,40.918183,-75.708822
pike,mo,150.0,53.4,127.2,19.8,39499,west_north_central,39.343835,-91.171363
marion,il,125.0,49.1,128.0,19.2,40969,east_north_central,38.649591,-88.918973
lee,ky,112.5,48.4,122.5,35.1,25767,east_south_central,37.594798,-83.716276
keokuk,ia,119.7,50.1,78.8,13.3,47626,west_north_central,41.336465,-92.178643
union,il,124.9,48.5,102.9,16.7,42799,east_north_central,37.471228,-89.255088
oneida,wi,134.1,46.2,170.9,11.6,46773,east_north_central,45.70556,-89.521836
cortland,ny,138.2,47.5,126.3,14.6,46163,middle_atlantic,42.595007,-76.070267
jackson,ia,134.4,54.4,154.0,11.8,46180,west_north_central,42.171743,-90.574229
sharkey,ms,161.2,76.1,146.3,38.5,27380,east_south_central,32.879723,-90.813215
east carroll parish,la,84.2,73.9,107.5,44.8,26781,west_south_central,32.732553,-91.235065
colonial heights city,va,163.8,36.4,142.2,10.8,49715,south_atlantic,37.26504,-77.396907
greene,ny,132.9,41.6,107.2,13.9,50190,middle_atlantic,42.27652,-74.122707
rolette,nd,161.9,61.4,109.3,29.6,34836,west_north_central,48.772451,-99.840987
iron,mo,131.2,53.2,107.5,22.0,32994,west_north_central,37.555149,-90.77349
luzerne,pa,122.0,51.9,113.7,16.1,44734,middle_atlantic,41.17701,-75.989026
oswego,ny,109.4,41.9,135.2,18.6,46281,middle_atlantic,43.463883,-76.208687
rensselaer,ny,124.7,45.1,124.1,14.0,56643,middle_atlantic,42.711055,-73.509715
bell,ky,83.9,57.7,96.2,35.7,25761,east_south_central,36.730648,-83.674095
warren,in,127.5,50.4,108.9,9.9,53623,east_north_central,40.346903,-87.353314
kent,de,129.0,40.7,169.4,13.5,53811,south_atlantic,39.095954,-75.504614
kent,ri,137.5,40.7,111.5,8.1,63232,new_england,41.673339,-71.57895
piatt,il,146.6,30.1,118.3,7.2,66279,east_north_central,40.010367,-88.591091
cheatham,tn,130.1,54.3,124.8,13.3,52544,east_south_central,36.261174,-87.086778
macon,tn,128.4,41.3,115.0,21.3,35432,east_south_central,36.532034,-86.00727
morton,nd,152.4,57.8,129.0,8.3,59650,west_north_central,46.716057,-101.281167
orange,va,141.9,43.0,129.9,10.4,60829,south_atlantic,38.246236,-78.013492
knox,oh,151.9,47.5,152.0,14.5,47053,east_north_central,40.398765,-82.421534
livingston,il,126.9,49.7,154.6,12.5,52819,east_north_central,40.891557,-88.557717
wayne,ny,134.3,42.0,166.9,11.4,50603,middle_atlantic,43.325386,-77.048243
burlington,nj,136.3,48.8,162.4,6.2,76868,middle_atlantic,39.877693,-74.668203
clark,in,118.5,43.6,56.3,11.7,50296,east_north_central,38.477195,-85.707272
nassau,ny,145.2,38.7,152.0,6.5,95395,middle_atlantic,40.732144,-73.585536
lincoln,ky,111.7,60.5,111.0,23.1,35092,east_south_central,37.455349,-84.660811
marion,wv,131.8,53.8,125.4,15.3,41705,south_atlantic,39.509995,-80.243398
butler,ky,126.1,61.6,100.0,22.1,36670,east_south_central,37.20728,-86.681756
allegheny,pa,135.6,43.3,120.7,13.5,51400,middle_atlantic,40.468834,-79.981195
lincoln,wi,128.2,48.6,111.9,12.4,47721,east_north_central,45.33743,-89.734652
hanover,va,148.3,55.3,136.4,5.6,77316,south_atlantic,37.760151,-77.490874
saline,ne,127.3,71.9,135.6,12.0,49047,west_north_central,40.524061,-97.140909
union,sd,154.8,57.9,131.8,7.0,66831,west_north_central,42.832486,-96.65609
knox,ky,88.8,53.2,117.1,35.2,26220,east_south_central,36.890666,-83.854044
philadelphia,pa,126.3,49.8,161.8,26.0,36918,middle_atlantic,40.007638,-75.133962
buchanan,mo,120.3,48.4,114.8,17.8,43461,west_north_central,39.659859,-94.806156
minnehaha,sd,158.5,45.1,147.9,11.0,52382,west_north_central,43.674178,-96.791437
kossuth,ia,148.8,50.9,82.0,9.8,55972,west_north_central,43.20413,-94.20672
breckinridge,ky,110.9,62.1,107.6,19.2,40107,east_south_central,37.773268,-86.429278
delaware,pa,139.1,46.8,152.0,10.9,64186,middle_atlantic,39.916807,-75.3989
clinton,pa,113.2,51.0,102.0,14.2,44887,middle_atlantic,41.234054,-77.638106
new london,ct,137.6,38.8,109.3,9.4,62638,new_england,41.466779,-72.106497
christian,il,130.2,57.0,105.3,13.1,49391,east_north_central,39.545793,-89.277268
rockingham,nh,140.0,39.1,146.2,5.9,74785,new_england,42.984541,-71.088967
warren,ny,125.1,42.6,134.9,11.3,52552,middle_atlantic,43.560975,-73.846006
hardin,ky,121.3,51.5,135.4,14.4,48327,east_south_central,37.697924,-85.963372
henry,ky,144.5,52.8,109.3,15.4,48245,east_south_central,38.448468,-85.11893
rusk,wi,79.8,46.3,102.4,18.5,37350,east_north_central,45.475137,-91.133121
campbell,ky,126.9,54.5,118.5,14.8,53321,east_south_central,38.946477,-84.379696
spencer,ky,113.9,55.4,111.0,9.3,66711,east_south_central,38.032511,-85.327852
clinton,ny,110.5,38.8,121.4,15.7,45900,middle_atlantic,44.746227,-73.678174
lauderdale,tn,118.5,54.2,145.4,27.7,32169,east_south_central,35.761013,-89.631444
carroll,il,124.3,46.8,127.7,14.0,43643,east_north_central,42.068686,-89.934413
iberia parish,la,138.2,58.1,147.8,20.2,41185,west_south_central,29.7565,-91.763056
franklin city,va,193.2,57.9,220.3,21.9,36326,south_atlantic,36.683091,-76.938585
humphreys,ms,123.7,96.0,196.9,48.3,22599,east_south_central,33.128697,-90.526621
madison,ky,134.1,44.2,138.0,19.8,44845,east_south_central,37.720184,-84.277997
yukon-koyukuk census area,ak,140.4,118.3,82.9,24.4,35114,pacific,65.508767,-151.391676
roosevelt,mt,98.7,61.6,149.5,26.6,34291,mountain,48.294533,-105.016542
des moines,ia,132.6,44.9,124.8,12.3,42882,west_north_central,40.923183,-91.181471
king george,va,121.3,49.4,106.0,7.9,78180,south_atlantic,38.273739,-77.156506
amelia,va,141.3,39.7,177.6,12.1,52055,south_atlantic,37.336026,-77.976138
livingston,ky,132.0,44.8,122.6,15.9,41177,east_south_central,37.209703,-88.353814
wayne,il,128.7,34.0,122.6,17.4,42896,east_north_central,38.429565,-88.425614
scott,in,116.5,53.1,54.0,17.0,43650,east_north_central,38.68507,-85.747468
boone,wv,102.3,45.7,113.2,22.5,38098,south_atlantic,38.022997,-81.711213
meade,ky,102.7,45.5,121.0,15.4,45984,east_south_central,37.969839,-86.217179
warren,nj,135.0,44.4,149.7,8.7,68011,middle_atlantic,40.857246,-74.997022
webster,ky,97.6,58.7,70.5,17.0,40881,east_south_central,37.518417,-87.683157
lanier,ga,128.4,38.5,171.6,27.2,35101,south_atlantic,31.037894,-83.062653
breathitt,ky,101.0,69.9,90.6,33.9,26869,east_south_central,37.521617,-83.324085
lee,il,112.0,47.3,120.7,12.4,53126,east_north_central,41.746193,-89.300387
allegany,ny,135.2,47.3,110.8,16.7,41849,middle_atlantic,42.257391,-78.027561
scott,ms,108.1,70.5,142.6,27.2,31850,east_south_central,32.40638,-89.537638
hughes,ok,136.0,33.5,129.0,22.5,34656,west_south_central,35.048339,-96.250243
lumpkin,ga,116.1,37.2,122.3,21.5,42919,south_atlantic,34.572186,-84.00265
salem,nj,120.4,45.4,165.4,15.0,58483,middle_atlantic,39.576585,-75.357911
anderson,ky,137.6,51.1,129.7,11.4,52852,east_south_central,38.003911,-84.991009
mercer,nj,137.4,43.8,153.5,11.8,70575,middle_atlantic,40.283405,-74.701689
auglaize,oh,143.4,52.9,107.5,9.7,54010,east_north_central,40.560912,-84.221738
norfolk,ma,144.9,39.5,127.3,6.9,83830,new_england,42.152698,-71.196704
davison,sd,117.6,47.2,177.5,12.6,47506,west_north_central,43.67474,-98.145998
waldo,me,133.5,46.3,120.9,16.8,43203,new_england,44.485247,-69.121881
perry,il,125.0,54.5,108.3,17.6,41931,east_north_central,38.08376,-89.367015
josephine,or,134.7,42.2,104.0,19.4,37619,pacific,42.36546,-123.55558
penobscot,me,131.9,39.8,103.2,15.9,43615,new_england,45.400512,-68.649428
iberville parish,la,137.0,69.6,209.5,25.7,40449,west_south_central,30.258499,-91.349363
sangamon,il,138.1,48.5,119.7,15.2,55255,east_north_central,39.758173,-89.658898
walworth,wi,134.6,41.3,128.8,12.9,52610,east_north_central,42.668484,-88.541909
metcalfe,ky,97.4,57.3,68.0,27.7,30899,east_south_central,36.990542,-85.629251
mcclain,ok,113.9,43.9,128.3,10.0,57784,west_south_central,35.009336,-97.444302
edgar,il,111.6,51.3,93.7,18.5,44433,east_north_central,39.678535,-87.745571
orange,ny,127.8,44.5,135.6,13.6,68249,middle_atlantic,41.402135,-74.305565
mccormick,sc,161.2,47.9,111.5,21.9,38186,south_atlantic,33.89955,-82.309877
rabun,ga,125.9,44.7,135.3,19.4,38114,south_atlantic,34.881682,-83.402137
jones,ia,129.8,50.8,103.0,10.2,54749,west_north_central,42.12124,-91.131435
washington parish,la,127.3,45.0,152.0,25.4,31630,west_south_central,30.853342,-90.040525
pierce,wa,142.2,39.7,141.9,14.1,57619,pacific,47.037643,-122.137349
schuylkill,pa,118.8,54.2,97.5,13.6,41514,middle_atlantic,40.705801,-76.215955
harrison,ia,110.7,62.4,95.6,10.6,53764,west_north_central,41.682853,-95.816921
worth,ia,132.4,52.8,118.3,10.9,49605,west_north_central,43.377398,-93.260848
cabell,wv,134.6,45.1,109.2,23.4,37628,south_atlantic,38.420297,-82.241717
dekalb,il,124.9,43.4,140.0,18.7,54204,east_north_central,41.893529,-88.770315
hancock,il,135.4,46.0,109.6,12.2,47965,east_north_central,40.403776,-91.164698
lamoure,nd,122.9,50.5,118.0,9.6,55388,west_north_central,46.456914,-98.53546
barnstable,ma,156.4,36.0,145.0,9.6,60685,new_england,41.773449,-70.238137
claiborne,tn,116.6,44.9,124.3,22.9,32775,east_south_central,36.485855,-83.660416
rowan,nc,131.5,46.9,136.6,18.8,41475,south_atlantic,35.63954,-80.524641
vinton,oh,112.9,41.0,83.3,22.2,37842,east_north_central,39.250985,-82.48535
gallatin,ky,113.8,51.6,121.2,16.3,44142,east_south_central,38.756875,-84.859312
mercer,pa,143.1,48.4,141.0,14.1,43936,middle_atlantic,41.302181,-80.257702
chautauqua,ny,123.0,45.3,256.8,19.1,40468,middle_atlantic,42.302941,-79.405758
iron,wi,90.2,27.9,167.0,15.3,37412,east_north_central,46.317056,-90.264453
muscatine,ia,121.9,51.4,139.4,12.7,54025,west_north_central,41.483922,-91.112756
boyle,ky,141.8,44.8,133.5,17.2,43585,east_south_central,37.624333,-84.866812
saratoga,ny,133.7,43.5,116.0,7.9,69917,middle_atlantic,43.107381,-73.863905
grundy,ia,125.7,43.3,138.8,6.9,61381,west_north_central,42.401865,-92.791418
clallam,wa,142.5,38.9,115.9,17.5,46531,pacific,48.110438,-123.934315
pulaski,mo,131.8,54.8,127.4,15.1,49499,west_north_central,37.824625,-92.207663
warren,il,151.9,48.2,109.4,15.1,45770,east_north_central,40.848832,-90.615029
logan,ky,118.2,50.5,163.2,19.7,39513,east_south_central,36.859699,-86.878938
towns,ga,125.5,34.2,178.2,18.1,39854,south_atlantic,34.916652,-83.737279
hill,mt,131.9,46.0,111.4,18.5,43244,mountain,48.628218,-110.111245
strafford,nh,136.1,39.3,126.5,9.8,59290,new_england,43.297428,-71.029400999999993
jessamine,ky,112.3,42.8,122.1,15.4,52011,east_south_central,37.87203,-84.580933
ida,ia,152.9,64.5,192.4,11.5,51948,west_north_central,42.386875,-95.513496
essex,ma,137.8,37.8,134.7,11.6,67235,new_england,42.638874,-70.867921
hardin,ia,133.9,46.8,147.6,11.0,51907,west_north_central,42.38388,-93.240402
fulton,il,138.6,45.3,133.1,14.8,46342,east_north_central,40.472766,-90.207473
wayne,ky,104.1,48.8,111.6,27.5,29878,east_south_central,36.801265,-84.828631
york,me,135.2,39.5,102.9,10.0,55163,new_england,43.429226,-70.670147
bucks,pa,138.1,40.6,133.1,6.4,73662,middle_atlantic,40.336945,-75.106865
richardson,ne,126.8,57.2,104.5,14.4,41679,west_north_central,40.125064,-95.717531
lynchburg city,va,147.5,45.2,119.9,22.6,39918,south_atlantic,37.400416,-79.191108
bibb,al,158.1,44.5,116.7,23.1,39781,east_south_central,32.998644,-87.126439
washington,in,128.0,51.4,68.5,15.5,43981,east_north_central,38.599984,-86.105306
jennings,in,111.7,42.2,71.4,16.9,44554,east_north_central,38.99693,-85.628065
otsego,ny,131.9,40.0,101.4,17.1,47689,middle_atlantic,42.633763,-75.032606
mccook,sd,125.4,52.3,118.3,9.6,53478,west_north_central,43.674311,-97.368443
blackford,in,104.9,51.6,122.6,15.4,39373,east_north_central,40.473601,-85.32482
franklin,ky,134.4,49.9,92.2,16.9,46309,east_south_central,38.239148,-84.877068
niagara,ny,129.5,43.8,143.2,13.8,46752,middle_atlantic,43.336111,-78.770825
cedar,ia,118.3,45.8,144.2,7.4,58530,west_north_central,41.772321,-91.132412
marion,ia,126.5,57.8,117.7,9.3,56883,west_north_central,41.334451,-93.099437
lake,oh,137.6,41.4,115.5,9.4,55477,east_north_central,41.910352,-81.250939
middlesex,ct,148.2,38.3,125.9,7.3,75335,new_england,41.435381,-72.523119
schuyler,ny,98.2,52.3,105.1,17.9,44080,middle_atlantic,42.3938,-76.875182
putnam,wv,127.2,38.0,111.9,11.0,56102,south_atlantic,38.508617,-81.908993
sussex,nj,126.7,43.4,132.5,6.1,85747,middle_atlantic,41.139415,-74.690754
franklin,il,132.3,45.3,118.1,20.0,35681,east_north_central,37.992285,-88.924154
vermillion,in,105.0,54.9,130.0,13.9,40813,east_north_central,39.853797,-87.463974
albany,ny,142.2,40.5,127.0,13.7,55778,middle_atlantic,42.600176,-73.973559
york,pa,130.9,45.9,104.7,10.8,56963,middle_atlantic,39.91996,-76.726518
logan,il,123.9,60.6,125.3,13.6,50991,east_north_central,40.124557,-89.367546
carroll,ky,137.7,63.9,83.7,21.0,41792,east_south_central,38.667858,-85.12359
tyler,wv,101.9,43.1,135.9,17.9,39401,south_atlantic,39.465278,-80.884825
morgan,in,132.2,51.9,108.9,12.7,56491,east_north_central,39.481548,-86.446212
cooper,mo,142.7,46.6,103.6,15.5,44397,west_north_central,38.84354,-92.810119
sullivan,nh,125.8,38.1,74.3,10.4,52114,new_england,43.361217,-72.222404
muskogee,ok,117.1,43.9,130.6,19.9,38574,west_south_central,35.616131,-95.379527
broome,ny,132.3,41.6,140.0,17.7,45142,middle_atlantic,42.160217,-75.819618
onslow,nc,125.1,38.1,112.7,16.9,45213,south_atlantic,34.709432,-77.415949
ray,mo,127.9,51.1,118.1,13.2,52430,west_north_central,39.352414,-93.989884
fayette,ky,141.3,42.4,134.2,19.0,47959,east_south_central,38.042324,-84.458726
hancock,me,122.2,45.3,126.4,14.3,44463,new_england,44.562887,-68.368208
polk,ne,109.5,60.2,92.5,8.9,56618,west_north_central,41.186897,-97.568421
mississippi,mo,109.9,52.9,98.7,36.3,31421,west_north_central,36.828098,-89.291182
brule,sd,117.1,61.5,124.5,13.9,45878,west_north_central,43.718059,-99.080935
bourbon,ky,100.2,39.9,128.0,16.5,40045,east_south_central,38.206734,-84.217151
new haven,ct,136.4,42.0,126.9,12.8,58672,new_england,41.348823,-72.89986
lawrence,pa,133.2,38.7,103.9,13.8,43199,middle_atlantic,40.991266,-80.334194
harrison,wv,100.0,47.1,96.3,16.1,42197,south_atlantic,39.28353,-80.379875
kanawha,wv,116.0,46.6,124.4,15.3,45858,south_atlantic,38.336575,-81.528118
hunterdon,nj,150.6,40.6,113.5,4.1,107203,middle_atlantic,40.567285,-74.912219
westmoreland,pa,130.8,45.2,107.5,10.7,51412,middle_atlantic,40.310726,-79.466963
macomb,mi,126.3,41.7,145.5,13.4,52954,east_north_central,42.672795,-82.910158
mifflin,pa,132.0,47.0,98.8,14.5,42567,middle_atlantic,40.610413,-77.617042
washington,md,131.2,40.8,107.3,12.0,55643,south_atlantic,39.603675,-77.813981
fairfield,ct,145.1,38.1,141.3,9.6,81816,new_england,41.22496,-73.371205
franklin,mo,137.9,41.5,109.7,10.8,51138,west_north_central,38.411144,-91.074994
hot springs,wy,80.1,55.8,116.3,12.5,42694,mountain,43.718929,-108.442097
wayne,mi,131.2,46.9,180.7,25.1,40485,east_north_central,42.284776,-83.261125
todd,ky,105.6,47.0,121.2,20.5,38533,east_south_central,36.835556,-87.179153
thurston,wa,135.6,42.8,128.0,12.5,59877,pacific,46.929501,-122.832076
onondaga,ny,132.1,39.4,174.6,15.3,52055,middle_atlantic,43.005795,-76.194642
pike,oh,116.4,40.4,81.8,24.3,41092,east_north_central,39.077371,-83.066854
union,tn,117.1,54.0,129.7,22.1,35255,east_south_central,36.287874,-83.837514
marion,oh,115.4,56.7,113.3,16.3,42862,east_north_central,40.587191,-83.160871
custer,mt,96.9,50.8,142.6,12.8,43958,mountain,46.252709,-105.571711
vermilion parish,la,132.7,58.8,197.2,18.6,43434,west_south_central,29.809389,-92.304283
grenada,ms,148.7,59.1,194.8,25.2,31703,east_south_central,33.769954,-89.802006
dubuque,ia,132.4,38.6,131.9,12.8,51907,west_north_central,42.468822,-90.882522
shelby,ky,126.8,58.0,117.8,12.6,56808,east_south_central,38.215436,-85.194774
monroe,ny,142.5,38.9,148.8,15.5,51722,middle_atlantic,43.309161,-77.680178
pender,nc,127.2,34.7,99.6,18.3,44949,south_atlantic,34.514939,-77.888868
letcher,ky,93.7,66.7,78.1,27.1,31799,east_south_central,37.121192,-82.855282
page,ia,104.4,55.0,149.5,17.3,47438,west_north_central,40.739144,-95.150175
pulaski,il,145.7,46.0,159.7,21.5,34828,east_north_central,37.222912,-89.126574
mason,il,111.3,49.9,108.5,14.0,45563,east_north_central,40.239648,-89.916784
washington,ri,135.7,34.8,121.0,9.6,69267,new_england,41.396489,-71.619659
washington,ia,127.7,39.8,116.3,9.3,54480,west_north_central,41.335591,-91.717868
ontario,ny,124.4,33.1,143.2,10.0,57846,middle_atlantic,42.852848,-77.299821
dickinson,ia,136.3,51.8,130.8,8.7,58610,west_north_central,43.377985,-95.15083
effingham,ga,131.3,50.6,90.6,11.8,61062,south_atlantic,32.36731,-81.34134
yates,ny,128.8,41.9,104.8,16.5,45509,middle_atlantic,42.633442,-77.105459
hickman,tn,124.5,44.2,119.3,23.2,33816,east_south_central,35.803251,-87.473308
montgomery,pa,138.1,40.7,140.8,6.8,77021,middle_atlantic,40.21083,-75.367297
armstrong,pa,129.7,48.4,111.2,14.7,42927,middle_atlantic,40.812291,-79.464539
snohomish,wa,135.1,40.0,130.4,11.2,67443,pacific,48.046016,-121.722183
dutchess,ny,135.9,40.9,132.9,9.5,69300,middle_atlantic,41.765148,-73.742862
erie,pa,131.0,38.3,137.3,17.9,44223,middle_atlantic,42.117476,-80.098106
gallatin,il,85.0,54.7,90.6,17.1,40349,east_north_central,37.762746,-88.230503
atlantic,nj,132.9,43.5,135.4,17.1,51668,middle_atlantic,39.468834,-74.633733
sharp,ar,126.8,47.8,97.9,22.8,31224,west_south_central,36.161157,-91.479864
rhea,tn,112.3,40.2,98.7,19.6,38860,east_south_central,35.608711,-84.924396
lee,ga,116.5,53.0,160.8,11.6,63272,south_atlantic,31.779507,-84.141134
cumberland,nj,113.0,52.2,145.4,20.1,45850,middle_atlantic,39.328069,-75.129342
saline,il,104.2,57.9,118.2,18.6,39281,east_north_central,37.753183,-88.540801
vigo,in,133.1,46.8,112.4,23.9,39014,east_north_central,39.430639,-87.389964
jackson,in,128.8,50.3,90.0,12.9,49614,east_north_central,38.90642,-86.037538
sawyer,wi,140.1,42.7,98.3,17.6,40608,east_north_central,45.879972,-91.144665
tazewell,il,125.9,48.3,139.6,8.9,57544,east_north_central,40.507517,-89.51342
knox,in,133.1,54.0,121.5,15.9,44091,east_north_central,38.68909,-87.418008
butler,pa,137.9,44.9,156.8,9.4,58430,middle_atlantic,40.91172,-79.912993
taylor,ky,104.0,60.3,119.8,20.7,36599,east_south_central,37.366456,-85.327839
lee,ia,123.4,51.0,138.5,16.2,45307,west_north_central,40.641976,-91.479264
polk,tn,112.0,35.1,110.5,19.7,37375,east_south_central,35.1199,-84.523302
st. louis,mo,148.3,43.6,131.5,10.9,59284,west_north_central,38.640689,-90.44342
forest,wi,95.5,58.5,153.4,18.1,40153,east_north_central,45.667307,-88.770384
caldwell,ky,103.7,42.6,114.7,19.0,37317,east_south_central,37.145333,-87.867907
white,tn,136.6,44.2,122.5,19.7,34320,east_south_central,35.926348,-85.455177
mclean,ky,87.3,57.9,145.8,18.1,38128,east_south_central,37.52919,-87.263607
logan,oh,129.0,46.4,77.1,13.2,50077,east_north_central,40.388453,-83.765872
erie,oh,142.0,50.6,109.1,15.0,46495,east_north_central,41.470558,-82.576277
jefferson,ny,115.4,47.0,135.3,15.7,46510,middle_atlantic,43.998846,-76.052107
henry,mo,103.9,51.8,95.3,18.4,39666,west_north_central,38.385163,-93.79275
rockingham,nc,135.3,47.2,144.1,21.2,40446,south_atlantic,36.39608,-79.775147
scioto,oh,120.9,43.0,108.9,24.5,36682,east_north_central,38.803962,-82.992831
martin,nc,139.4,43.6,138.3,22.6,34761,south_atlantic,35.8416,-77.107082
lackawanna,pa,125.9,45.4,113.5,14.8,44926,middle_atlantic,41.436786,-75.609196
brown,oh,101.1,49.7,110.4,17.8,43050,east_north_central,38.934048,-83.867428
elk,pa,134.8,45.5,194.0,9.8,46388,middle_atlantic,41.425227,-78.649086
scott,ia,124.9,42.9,120.1,14.2,54444,west_north_central,41.637098,-90.623243
wayne,in,111.3,44.2,113.1,23.0,36623,east_north_central,39.864416,-85.009876
adams,wi,117.4,39.4,100.7,15.1,43814,east_north_central,43.96954,-89.770399
graham,az,118.5,47.4,56.9,21.6,43497,mountain,32.932716,-109.887438
noble,oh,113.1,43.1,38.6,17.3,42425,east_north_central,39.765959,-81.455561
ford,il,149.8,45.9,128.3,11.4,52375,east_north_central,40.597177,-88.223259
linn,ia,126.6,40.9,102.2,9.7,56503,west_north_central,42.078948,-91.598965
fentress,tn,143.6,57.5,101.3,22.6,31065,east_south_central,36.380493,-84.932459
pocahontas,wv,103.1,40.2,69.7,19.2,32199,south_atlantic,38.331795,-80.007752
cecil,md,117.7,41.6,127.5,9.8,64880,south_atlantic,39.56242,-75.948107
van buren,ia,101.4,49.4,56.7,16.2,43019,west_north_central,40.753229,-91.949987
levy,fl,114.2,47.3,80.1,23.6,33193,south_atlantic,29.282206,-82.788613
cascade,mt,148.2,41.8,124.8,15.7,43674,mountain,47.307954,-111.347048
wicomico,md,124.1,41.4,168.2,16.5,47536,south_atlantic,38.36941,-75.631531
morris,nj,142.6,38.6,157.4,4.9,99950,middle_atlantic,40.86203,-74.544444
anderson,tn,135.8,40.9,144.2,19.7,42365,east_south_central,36.118443,-84.198463
warren,pa,129.5,39.7,147.4,14.2,42043,middle_atlantic,41.814575,-79.274143
okfuskee,ok,140.7,40.0,113.1,25.3,34982,west_south_central,35.465458,-96.322803
monroe,ar,109.3,51.2,143.9,28.7,29870,west_south_central,34.677838,-91.203892
dixie,fl,114.5,41.9,68.8,27.1,31649,south_atlantic,29.581242,-83.187032
iowa,ia,127.8,44.0,125.2,10.1,58028,west_north_central,41.686323,-92.065524
peoria,il,135.3,47.3,149.6,17.0,49827,east_north_central,40.788081,-89.759987
lyon,ky,141.1,48.7,89.7,17.4,43311,east_south_central,37.019129,-88.083283
barbour,wv,100.5,41.9,95.6,21.4,35558,south_atlantic,39.132934,-80.003029
chester,pa,134.0,37.3,136.1,7.0,83775,middle_atlantic,39.973141,-75.748454
clark,oh,135.0,43.2,103.3,18.2,44029,east_north_central,39.916778,-83.783896
hardeman,tn,128.4,46.9,118.3,24.7,34766,east_south_central,35.206868,-88.993085
kitsap,wa,130.4,39.6,156.3,11.4,62516,pacific,47.639831,-122.648996
nassau,fl,137.0,37.6,109.4,13.4,56987,south_atlantic,30.610578,-81.771418
chippewa,wi,131.3,40.9,120.5,11.5,49491,east_north_central,45.069408,-91.279887
randolph,mo,106.2,45.0,95.9,22.4,38988,west_north_central,39.440168,-92.497078
crawford,oh,125.3,41.5,100.1,18.2,38421,east_north_central,40.850773,-82.919778
graves,ky,127.2,47.6,90.4,19.3,39960,east_south_central,36.723138,-88.651206
mitchell,ga,151.8,57.7,165.2,32.8,32280,south_atlantic,31.22532,-84.194309
washington,pa,128.8,47.2,112.8,10.9,54919,middle_atlantic,40.189401,-80.248244
terrell,ga,172.2,70.3,170.4,30.4,31826,south_atlantic,31.776881,-84.436922
copiah,ms,156.6,56.1,163.5,29.6,32060,east_south_central,31.869237,-90.448799
chemung,ny,123.3,40.1,130.7,17.0,45337,middle_atlantic,42.141247,-76.760026
livingston,ny,135.2,43.7,129.4,15.0,51901,middle_atlantic,42.728075,-77.775492
hutchinson,sd,158.8,55.3,103.4,13.1,44958,west_north_central,43.334847,-97.754416
scott,mo,108.8,55.3,108.4,18.4,40441,west_north_central,37.053046,-89.568515
johnson,il,131.4,64.9,93.1,17.9,39965,east_north_central,37.459631,-88.880889
beaver,pa,139.5,40.0,97.5,11.3,49215,middle_atlantic,40.682263,-80.349287
tuolumne,ca,132.1,39.6,104.6,14.6,50774,pacific,38.027601,-119.954753
jefferson,ms,149.6,46.3,185.9,35.4,26401,east_south_central,31.734205,-91.037179
lehigh,pa,126.7,41.5,125.6,14.2,53722,middle_atlantic,40.612707,-75.592366
westchester,ny,139.8,38.3,145.9,9.9,83094,middle_atlantic,41.15148,-73.753391
grant,in,116.4,56.1,130.5,21.7,39325,east_north_central,40.515845,-85.654726
hampshire,wv,112.8,55.7,88.3,16.9,37444,south_atlantic,39.317065,-78.614168
rockland,ny,140.2,37.6,176.4,14.8,80132,middle_atlantic,41.15243,-74.024091
burke,nc,118.2,51.7,105.8,20.6,36150,south_atlantic,35.749522,-81.704702
middlesex,ma,139.9,38.4,117.5,8.7,82118,new_england,42.485545,-71.391837
winnebago,wi,137.1,36.5,108.1,12.6,50469,east_north_central,44.068877,-88.644659
greenbrier,wv,132.2,47.9,99.8,17.7,37218,south_atlantic,37.946933,-80.452952
milwaukee,wi,133.9,43.3,138.8,22.4,42058,east_north_central,43.015458,-87.580557
wallowa,or,95.8,41.1,113.2,15.1,42751,pacific,45.579829,-117.181069
tift,ga,139.3,43.3,143.0,31.3,33902,south_atlantic,31.457438,-83.526594
floyd,in,132.3,38.5,71.9,13.1,55844,east_north_central,38.318929,-85.906831
clinton,mo,117.7,36.6,108.2,11.5,52461,west_north_central,39.60178,-94.404594
chittenden,vt,145.5,32.7,119.3,10.1,62618,new_england,44.460981,-73.080921
stone,ms,115.3,52.6,142.2,22.4,40294,east_south_central,30.789952,-89.11771
perry,pa,116.6,36.4,84.6,10.2,56544,middle_atlantic,40.398409,-77.262296
webster,ms,117.3,58.3,171.1,22.9,34930,east_south_central,33.613068,-89.284826
garvin,ok,116.4,57.2,142.7,19.8,38414,west_south_central,34.704573,-97.309323
somerset,md,97.0,50.0,120.9,28.5,36106,south_atlantic,38.080066,-75.853469
lewis,mo,115.5,52.4,57.6,17.5,41187,west_north_central,40.0969,-91.722144
bond,il,146.6,54.4,104.1,16.0,48464,east_north_central,38.886817,-89.435549
grundy,tn,109.3,57.8,76.5,28.9,26101,east_south_central,35.388367,-85.722582
randolph,nc,128.8,40.1,141.0,19.8,40896,south_atlantic,35.710326,-79.806162
tioga,ny,125.9,45.7,151.9,11.7,51026,middle_atlantic,42.170297,-76.306317
muskingum,oh,110.7,44.7,82.5,20.6,40399,east_north_central,39.965422,-81.944382
rosebud,mt,143.7,49.4,161.8,19.5,50597,mountain,46.229659,-106.730728
mills,ia,110.8,45.3,114.0,10.0,56504,west_north_central,41.033452,-95.621327
hillsborough,nh,138.5,37.4,143.6,9.3,67162,new_england,42.915306,-71.716009
henry,il,119.3,45.6,108.7,11.2,52117,east_north_central,41.353133,-90.131417
east feliciana parish,la,158.2,70.5,195.9,20.6,41578,west_south_central,30.845071,-91.045535
macon,mo,148.0,49.1,126.0,18.8,38110,west_north_central,39.830802,-92.564608
seneca,ny,123.4,39.5,112.2,13.1,45265,middle_atlantic,42.781081,-76.823779
scotland,nc,132.3,50.0,169.2,34.1,32314,south_atlantic,34.840898,-79.480432
putnam,il,86.0,51.3,158.7,9.0,58438,east_north_central,41.204469,-89.285833
forrest,ms,123.1,43.3,178.4,28.0,34391,east_south_central,31.188869,-89.25786
flathead,mt,125.6,38.2,175.9,16.7,46885,mountain,48.295127,-114.049674
baltimore city,md,126.2,46.9,146.5,22.7,41988,south_atlantic,39.30098,-76.610647
butte,ca,141.5,40.8,128.9,21.4,42395,pacific,39.666929,-121.600672
jackson,ga,131.7,48.5,130.9,14.0,52385,south_atlantic,34.133883,-83.566348
cambria,pa,118.1,52.9,119.0,16.2,40930,middle_atlantic,40.495294,-78.713703
johnson,ia,137.6,39.9,121.9,16.0,53204,west_north_central,41.671551,-91.588085
morgan,il,135.4,48.7,122.2,16.0,48223,east_north_central,39.715565,-90.201496
polk,ia,133.2,43.8,117.4,12.4,59388,west_north_central,41.685505,-93.573534
whatcom,wa,139.0,34.5,129.6,16.4,51119,pacific,48.829736,-121.87287
franklin,ia,122.5,47.3,88.3,13.6,47879,west_north_central,42.732546,-93.262473
mason,wa,132.0,39.1,111.7,18.2,46886,pacific,47.350475,-123.183091
harford,md,138.3,42.9,135.4,7.4,77453,south_atlantic,39.536437,-76.298872
jefferson,in,96.7,45.3,106.6,15.3,44569,east_north_central,38.785823,-85.438573
la porte,in,112.1,46.6,127.4,17.0,46610,east_north_central,41.549022,-86.742366
mountrail,nd,111.8,66.0,103.5,11.5,65546,west_north_central,48.201331,-102.355653
boone,ne,134.8,48.9,196.4,9.9,50156,west_north_central,41.706785000000004,-98.067256
cabarrus,nc,131.5,38.5,132.5,12.1,55046,south_atlantic,35.386906,-80.552061
hancock,in,121.5,39.9,74.5,6.5,67738,east_north_central,39.82355,-85.773238
tompkins,ny,130.2,40.1,128.8,18.8,49457,middle_atlantic,42.452016,-76.473659
ashtabula,oh,115.9,49.7,115.7,18.9,40899,east_north_central,41.896381,-80.759011
clinton,oh,115.3,49.9,83.1,17.3,46541,east_north_central,39.414978,-83.808379
poinsett,ar,99.7,49.1,85.3,24.7,34113,west_south_central,35.574032,-90.66294
preston,wv,133.6,50.8,100.2,17.0,42187,south_atlantic,39.469297,-79.668162
polk,or,142.4,42.0,133.4,18.3,51224,pacific,44.903494,-123.413342
washington,me,114.1,51.3,116.5,18.8,35754,new_england,44.969459,-67.609058
de witt,il,122.7,67.7,175.8,13.8,53303,east_north_central,40.174629,-88.90409
rutland,vt,125.7,43.3,108.0,13.5,45757,new_england,43.580092,-73.036609
campbell,tn,119.1,39.7,113.1,23.9,32325,east_south_central,36.403513,-84.149385
cumberland,pa,132.0,44.1,90.8,8.6,60134,middle_atlantic,40.163628,-77.265543
edwards,il,129.5,52.6,137.5,12.7,45675,east_north_central,38.416533,-88.053269
unicoi,tn,107.7,35.4,85.3,17.6,36568,east_south_central,36.110822,-82.432237
kenton,ky,120.7,46.1,113.0,13.4,53949,east_south_central,38.933456,-84.533341
okmulgee,ok,116.6,43.3,143.4,19.7,36588,west_south_central,35.646665,-95.964308
putnam,in,119.8,49.2,66.7,13.2,51052,east_north_central,39.666262,-86.845
bartow,ga,124.2,52.3,115.5,19.1,46330,south_atlantic,34.237855,-84.840499
wetzel,wv,99.8,45.1,137.8,19.7,39444,south_atlantic,39.605263,-80.639098
herkimer,ny,115.1,43.8,129.8,16.4,42460,middle_atlantic,43.419702,-74.962498
fayette,pa,118.0,49.3,99.4,19.2,37929,middle_atlantic,39.9199,-79.647369
daviess,ky,110.7,43.9,151.1,15.3,46908,east_south_central,37.731772,-87.087227
pickens,ga,104.0,37.5,142.2,15.1,53332,south_atlantic,34.46432,-84.465639
shawano,wi,127.6,40.6,100.4,14.2,45953,east_north_central,44.789152,-88.765441
switzerland,in,88.1,71.3,57.9,19.9,43243,east_north_central,38.826161,-85.036998
rock,wi,118.9,38.5,108.3,14.3,49157,east_north_central,42.671224,-89.071566
decatur,ia,119.5,46.6,116.7,21.6,37534,west_north_central,40.737683,-93.786281
franklin,ga,131.8,56.6,123.8,20.9,40114,south_atlantic,34.375436,-83.229175
madison,ny,121.1,44.1,156.7,13.9,51057,middle_atlantic,42.912775,-75.669666
raleigh,wv,125.1,45.3,94.6,20.2,39998,south_atlantic,37.771361,-81.248635
oconto,wi,117.4,38.7,126.7,9.7,52800,east_north_central,44.998514,-88.220561
waukesha,wi,145.1,39.9,127.3,5.8,75652,east_north_central,43.018214,-88.304519
turner,sd,164.2,35.4,126.3,10.6,53115,west_north_central,43.310868,-97.14866
west baton rouge parish,la,139.3,48.6,215.2,16.4,48848,west_south_central,30.463415,-91.312747
peach,ga,136.4,59.0,128.5,21.1,42602,south_atlantic,32.568778,-83.826878
tattnall,ga,124.8,56.1,109.7,28.3,35983,south_atlantic,32.045748,-82.058176
kootenai,id,136.0,40.0,127.4,13.3,51681,mountain,47.674556,-116.700014
lenoir,nc,141.0,44.9,144.4,21.7,34127,south_atlantic,35.239151,-77.641273
jefferson davis parish,la,136.3,57.1,128.1,18.0,40760,west_south_central,30.267722,-92.814121
washington,oh,119.8,41.8,101.4,16.3,41236,east_north_central,39.455316,-81.495253
mccurtain,ok,133.5,44.7,114.1,25.4,31319,west_south_central,34.115295,-94.771332
dent,mo,92.5,42.8,63.3,23.0,34761,west_north_central,37.60663,-91.507883
providence,ri,124.2,39.5,114.8,18.6,47642,new_england,41.871357,-71.578597
ulster,ny,121.7,40.6,112.8,12.7,56933,middle_atlantic,41.888146,-74.25857
habersham,ga,120.3,49.0,132.3,21.2,40530,south_atlantic,34.631021,-83.531116
somerset,nj,134.5,38.6,145.9,5.7,96947,middle_atlantic,40.563507,-74.616312
nottoway,va,146.0,56.7,193.5,23.5,34805,south_atlantic,37.143063,-78.051264
cass,ne,124.0,46.9,106.9,8.2,63738,west_north_central,40.909722,-96.140866
putnam,fl,116.7,41.7,110.6,26.9,32852,south_atlantic,29.608635,-81.744304
mchenry,il,138.2,43.6,119.1,7.1,75713,east_north_central,42.324387,-88.45245
audrain,mo,136.0,38.9,136.1,19.7,41164,west_north_central,39.215756,-91.841586
la salle,il,116.4,49.6,180.1,13.8,49487,east_north_central,41.343995,-88.885946
tioga,pa,121.0,41.7,109.1,13.2,45052,middle_atlantic,41.772161,-77.254264
saline,mo,112.6,52.5,96.4,18.4,38230,west_north_central,39.136839,-93.201851
kent,md,124.8,38.8,143.7,14.9,55695,south_atlantic,39.235604,-76.095821
roane,tn,115.3,38.6,118.4,18.1,42037,east_south_central,35.847855,-84.523242
bristol,ma,125.3,41.2,129.3,14.1,53626,new_england,41.757092,-71.088519
racine,wi,134.8,42.8,141.5,13.3,54403,east_north_central,42.751174,-87.696084
adams,pa,123.0,42.2,96.7,9.5,57725,middle_atlantic,39.871441,-77.2179
kennebec,me,128.7,38.4,108.8,14.8,45151,new_england,44.40916,-69.767264
jasper,il,116.1,57.9,168.8,10.5,52187,east_north_central,39.010031,-88.153811
dauphin,pa,123.8,44.4,105.3,13.8,53480,middle_atlantic,40.41544,-76.779474
clay,ia,143.0,43.7,141.0,10.7,51399,west_north_central,43.08258,-95.150919
jackson parish,la,94.5,47.4,112.1,21.2,35730,west_south_central,32.302035,-92.55774
cuyahoga,oh,130.5,42.4,142.5,19.2,43653,east_north_central,41.635059,-81.700196
tolland,ct,137.7,39.2,117.9,6.4,73660,new_england,41.855009,-72.336489
windham,vt,126.4,41.5,96.1,14.7,46642,new_england,42.990594,-72.713844
cowlitz,wa,124.9,42.8,103.4,15.9,48447,pacific,46.193292,-122.680785
duval,fl,132.8,44.0,145.7,17.1,47876,south_atlantic,30.335441,-81.648009
oakland,mi,136.5,38.6,167.3,10.2,67281,east_north_central,42.660406,-83.385799
hartford,ct,133.4,41.4,135.7,12.1,63491,new_england,41.806422,-72.732844
new kent,va,154.6,35.9,158.7,6.7,72150,south_atlantic,37.505143,-76.997128
fayette,il,112.8,43.9,110.0,16.9,43014,east_north_central,39.000191,-89.024144
lake,mt,135.2,46.6,124.7,20.3,39219,mountain,47.645906,-114.089374
litchfield,ct,125.7,40.2,140.4,7.2,70519,new_england,41.792495,-73.245324
columbia,ny,107.6,46.9,102.9,11.8,57094,middle_atlantic,42.250083,-73.631848
dodge,ne,142.6,46.2,146.9,11.3,48671,west_north_central,41.577886,-96.653983
sussex,de,125.4,38.3,137.9,14.8,50207,south_atlantic,38.683297,-75.339542
st. landry parish,la,126.9,62.2,172.5,27.1,33781,west_south_central,30.598851,-92.005857
alamance,nc,140.0,37.0,137.8,19.8,43001,south_atlantic,36.044057,-79.399471
district of columbia,dc,143.0,44.0,169.1,18.8,66326,south_atlantic,38.904774,-77.016291
madison,il,124.7,43.5,121.6,13.7,53864,east_north_central,38.829853,-89.905168
clay,in,117.6,52.3,107.5,15.0,47030,east_north_central,39.392728,-87.115758
sagadahoc,me,117.0,31.8,119.6,12.1,52279,new_england,43.911727,-69.839309
durham,nc,154.2,35.6,126.3,17.0,52331,south_atlantic,36.035998,-78.876324
boone,ky,122.0,42.7,134.2,8.7,65274,east_south_central,38.969864,-84.727866
schenectady,ny,129.5,38.0,100.7,14.2,53978,middle_atlantic,42.818121,-74.058573
wood,wv,107.5,48.3,115.3,17.9,41205,south_atlantic,39.211132,-81.514965
norfolk city,va,138.8,45.5,139.5,23.3,42949,south_atlantic,36.923343,-76.245618
concordia parish,la,120.5,58.0,138.3,30.6,30432,west_south_central,31.445836,-91.640055
sarpy,ne,130.0,42.9,108.3,6.3,67740,west_north_central,41.112927,-96.111992
gaston,nc,127.1,47.0,119.9,19.2,42461,south_atlantic,35.294369,-81.180245
major,ok,148.0,37.5,133.0,12.0,52226,west_south_central,36.311644,-98.535953
shoshone,id,134.4,46.0,119.1,19.4,37431,mountain,47.35166,-115.891086
fulton,in,119.6,55.6,100.2,16.3,44337,east_north_central,41.046963,-86.263584
fluvanna,va,117.8,33.8,97.0,8.2,63117,south_atlantic,37.841868,-78.277454
clay,ne,129.0,48.3,123.3,11.4,50587,west_north_central,40.524432,-98.051284
spink,sd,119.9,48.3,127.2,11.3,50274,west_north_central,44.938015,-98.346190000000007
teton,mt,179.9,56.9,134.1,15.1,43828,mountain,47.837176,-112.240577
will,il,129.2,45.2,134.0,8.5,74669,east_north_central,41.445035,-87.978658
crawford,in,139.6,38.6,62.6,19.3,38014,east_north_central,38.292415,-86.451708
sullivan,ny,109.5,42.1,106.3,19.4,46928,middle_atlantic,41.716423,-74.768143
cumberland,ky,99.7,59.9,96.6,26.2,30043,east_south_central,36.78653,-85.388449
jefferson,il,115.2,50.9,164.2,18.4,40663,east_north_central,38.30052,-88.924008
fremont,ia,100.3,33.4,97.5,13.1,50934,west_north_central,40.745589,-95.604677
lafayette,mo,113.3,44.4,78.8,12.7,46878,west_north_central,39.065588,-93.785543
ohio,wv,126.5,41.2,155.7,15.3,41009,south_atlantic,40.096922,-80.619057
conecuh,al,159.9,52.2,135.2,30.5,27196,east_south_central,31.429267,-86.993681
cumberland,me,133.0,38.3,103.9,12.1,55020,new_england,43.806082,-70.330201
kendall,il,128.6,45.8,131.9,5.8,79648,east_north_central,41.590542,-88.428834
berks,pa,126.8,43.5,122.9,14.0,55634,middle_atlantic,40.416296,-75.925999
clinton,ia,116.3,50.1,106.2,13.9,49702,west_north_central,41.898036,-90.531972
carter,mo,143.4,58.9,97.4,23.7,30017,west_north_central,36.941272,-90.96231
champaign,oh,116.7,44.0,111.7,12.0,48516,east_north_central,40.137674,-83.769497
sevier,tn,117.3,38.7,130.9,16.5,40444,east_south_central,35.784663,-83.524181
sullivan,tn,121.1,37.7,104.6,18.0,40385,east_south_central,36.512915,-82.304143
owen,ky,62.3,41.8,96.4,19.1,42134,east_south_central,38.519636,-84.82811
st. tammany parish,la,139.5,43.7,139.2,11.0,61655,west_south_central,30.407843,-89.954633
stewart,tn,123.3,49.9,103.8,17.2,43513,east_south_central,36.501104,-87.838458
guilford,nc,141.6,36.5,166.4,19.2,46093,south_atlantic,36.079451,-79.789013
licking,oh,118.9,42.2,101.7,11.2,54909,east_north_central,40.091608,-82.4831
montgomery,il,136.6,55.6,118.2,16.1,42614,east_north_central,39.23104,-89.47887
gasconade,mo,115.1,47.2,110.7,15.8,41270,west_north_central,38.440867,-91.507933
baltimore,md,134.5,39.3,125.4,9.5,64624,south_atlantic,39.443074,-76.616319
guernsey,oh,96.8,61.0,94.5,22.6,39760,east_north_central,40.052054,-81.494256
knott,ky,116.6,40.7,81.6,28.3,32294,east_south_central,37.354052,-82.954131
polk,ga,124.2,50.8,143.2,22.5,38730,south_atlantic,34.001784,-85.188153
oneida,ny,115.5,37.1,147.5,17.6,44031,middle_atlantic,43.241747,-75.435838
woodruff,ar,118.1,59.8,162.0,28.0,29159,west_south_central,35.186334,-91.243077
clackamas,or,142.2,37.9,112.3,9.7,66514,pacific,45.188143,-122.220947
surry,nc,121.9,42.1,123.3,21.3,36221,south_atlantic,36.414682,-80.687488
dupage,il,145.0,39.2,123.2,7.0,76269,east_north_central,41.851956,-88.085628
martin,in,138.8,69.2,109.8,14.9,46839,east_north_central,38.708011,-86.803065
lebanon,pa,121.6,41.1,115.7,11.2,54952,middle_atlantic,40.367232,-76.457712
st. martin parish,la,116.2,60.7,159.9,19.4,42110,west_south_central,30.129072,-91.608296
beaufort,nc,131.9,47.5,152.0,20.5,39043,south_atlantic,35.485833,-76.845161
pottawattamie,ia,119.4,48.2,100.4,13.6,50570,west_north_central,41.336612,-95.542394
worcester,ma,129.6,35.4,121.9,13.0,62268,new_england,42.351399,-71.90774
crawford,wi,131.0,40.1,138.1,14.3,41598,east_north_central,43.239462,-90.931048
henderson,tn,109.7,46.0,85.6,19.4,40960,east_south_central,35.654257,-88.387987
russell,al,137.1,51.3,158.8,23.9,35762,east_south_central,32.28838,-85.184963
pennington,sd,132.8,41.3,82.5,15.4,48886,west_north_central,44.003733,-102.823831
jasper,mo,116.0,50.4,85.5,18.3,40530,west_north_central,37.203547,-94.340605
shelby,in,133.5,47.6,99.2,12.6,49657,east_north_central,39.523692,-85.7917
fountain,in,126.5,51.4,97.6,13.8,42732,east_north_central,40.120871,-87.241992
buncombe,nc,141.3,35.5,137.9,15.7,45738,south_atlantic,35.611225,-82.530101
jefferson,tn,116.9,38.4,103.5,16.4,40490,east_south_central,36.050988,-83.446309
multnomah,or,137.0,39.7,106.1,18.2,53624,pacific,45.546864,-122.41513
hawkins,tn,107.8,45.8,105.1,21.2,36102,east_south_central,36.441165,-82.944682
effingham,il,119.4,56.7,159.6,11.1,50900,east_north_central,39.05977,-88.589857
clarke,ia,109.7,54.0,111.7,13.3,42776,west_north_central,41.029032,-93.785158
calvert,md,143.3,33.5,126.6,6.9,91993,south_atlantic,38.534712,-76.530564
newport,ri,141.5,36.7,108.2,10.1,67291,new_england,41.499801,-71.280996
livingston,mo,140.3,39.6,113.5,17.2,38839,west_north_central,39.782105,-93.548282
montour,pa,119.4,46.8,153.9,10.3,53329,middle_atlantic,41.027921,-76.658562
crawford,pa,120.4,49.1,141.4,14.4,43793,middle_atlantic,41.684696,-80.106277
douglas,ne,131.4,43.7,122.6,15.2,51959,west_north_central,41.295352,-96.15448
grays harbor,wa,112.8,47.7,150.1,19.4,41791,pacific,47.144448,-123.828467
washington,vt,126.9,40.7,127.5,12.6,52619,new_england,44.273384,-72.614978
pike,pa,110.3,41.8,113.3,10.4,60168,middle_atlantic,41.331988,-75.033829
webster,wv,123.1,52.5,96.8,27.1,31805,south_atlantic,38.494737,-80.421873
ashland,oh,127.0,47.6,82.4,12.9,48196,east_north_central,40.846019,-82.270692
harrison,in,124.2,35.3,73.3,13.0,50321,east_north_central,38.195123,-86.111311
new castle,de,132.4,37.5,152.3,11.9,63033,south_atlantic,39.578327,-75.638982
richmond,nc,127.8,42.0,134.1,27.3,32825,south_atlantic,35.005944,-79.747834
creek,ok,131.1,44.1,107.8,14.9,44608,west_south_central,35.902678,-96.370942
blaine,ok,129.5,57.7,158.0,16.8,41276,west_south_central,35.875251,-98.433457
linn,or,125.6,34.0,111.4,19.0,44941,pacific,44.488679,-122.534319
carroll,md,135.2,38.7,115.5,6.8,82073,south_atlantic,39.562854,-77.022523
suffolk,ma,126.0,41.0,139.5,20.4,54164,new_england,42.348659,-70.985637
bennington,vt,122.2,34.4,118.8,15.1,48290,new_england,43.035463,-73.092952
athens,oh,126.3,50.8,114.1,31.0,35783,east_north_central,39.333863,-82.045129
big horn,mt,106.5,48.8,128.0,27.6,38026,mountain,45.423382,-107.489853
barren,ky,104.4,51.0,116.2,20.7,38370,east_south_central,36.965581,-85.933663
st. louis city,mo,124.4,48.0,126.4,27.2,34346,west_north_central,38.635775,-90.245172
franklin,vt,124.1,45.7,92.5,11.8,55912,new_england,44.857514,-72.912027
merrick,ne,139.6,30.1,154.1,11.1,50317,west_north_central,41.169038,-98.037985
fond du lac,wi,129.8,38.5,127.3,9.1,54649,east_north_central,43.753589,-88.488263
cheshire,nh,131.7,39.8,104.5,11.4,52246,new_england,42.919325,-72.251178
cayuga,ny,120.8,39.4,116.3,14.2,48976,middle_atlantic,43.010327,-76.574358
clay,mo,130.2,39.0,128.8,10.0,60641,west_north_central,39.310521,-94.420865
gulf,fl,100.1,33.1,102.9,22.4,38880,south_atlantic,29.908621,-85.261006
lake,in,127.2,50.8,131.9,17.8,48341,east_north_central,41.472211,-87.376382
calhoun,ms,136.7,55.8,200.6,25.8,32656,east_south_central,33.93645,-89.336445
calhoun,wv,77.0,49.0,111.6,21.0,31946,south_atlantic,38.844498,-81.117572
bell,tx,122.3,39.2,122.3,15.1,50223,west_south_central,31.037672,-97.478202
schoharie,ny,124.9,43.9,89.4,13.7,49307,middle_atlantic,42.588219,-74.442118
roane,wv,99.6,52.1,83.1,23.1,35982,south_atlantic,38.714026,-81.34835
cherokee,ga,126.9,34.8,138.6,11.0,67686,south_atlantic,34.243929,-84.476203
richland,il,120.3,48.9,127.7,16.4,41985,east_north_central,38.71236,-88.085101
scott,ky,131.7,46.7,149.5,10.5,61906,east_south_central,38.291555,-84.583927
sequatchie,tn,100.8,41.7,79.8,18.1,46460,east_south_central,35.371148,-85.410587
harrison,ms,119.3,45.2,136.6,22.7,41657,east_south_central,30.41605,-89.081643
hall,ne,106.9,49.5,151.9,14.9,49750,west_north_central,40.872572,-98.502174
middlesex,nj,131.2,42.3,139.0,9.4,76515,middle_atlantic,40.44004,-74.408892
steuben,ny,107.8,42.3,107.7,15.6,46540,middle_atlantic,42.267809,-77.383803
sabine parish,la,118.9,55.0,136.7,21.8,37864,west_south_central,31.564013,-93.554697
henry,in,108.7,48.9,91.6,17.2,42133,east_north_central,39.93104,-85.396435
adams,oh,102.1,56.8,90.1,24.1,37259,east_north_central,38.845515,-83.472152
keith,ne,157.8,58.9,119.7,13.9,42851,west_north_central,41.198793,-101.661351
jefferson,oh,120.4,41.1,125.9,18.4,38074,east_north_central,40.38502,-80.760972
oxford,me,109.7,40.6,104.3,15.0,38932,new_england,44.49977,-70.756573
mc kean,pa,113.7,49.8,110.7,19.0,41653,middle_atlantic,41.807748,-78.569025
palo pinto,tx,124.3,47.6,91.9,17.6,39660,west_south_central,32.75318,-98.313021
clarion,pa,114.6,51.4,135.9,18.7,40043,middle_atlantic,41.19239,-79.420964
robertson,tn,125.1,46.8,128.0,12.1,51093,east_south_central,36.525455,-86.870566
hamilton,oh,133.7,41.9,138.4,18.7,47123,east_north_central,39.195531,-84.542775
mcdowell,nc,119.6,53.3,110.9,21.9,36840,south_atlantic,35.681244,-82.048702
forest,pa,113.1,37.2,105.2,24.5,38087,middle_atlantic,41.513072,-79.236012
union,ia,121.8,44.5,80.0,13.5,43357,west_north_central,41.02773,-94.242379
dawson,tx,112.9,55.4,119.0,23.8,38333,west_south_central,32.742526,-101.947684
washington,wi,130.6,38.4,138.6,7.0,67276,east_north_central,43.368484,-88.230758
lawrence,oh,115.9,40.9,94.1,20.6,41137,east_north_central,38.598469,-82.536752
davie,nc,130.1,37.7,125.0,13.9,49708,south_atlantic,35.929158,-80.544468
forsyth,ga,132.2,41.3,132.8,7.7,87565,south_atlantic,34.225546,-84.125018
madison,ms,133.8,40.4,124.9,12.7,64657,east_south_central,32.634655,-90.033756
bergen,nj,134.8,39.2,138.9,8.1,81615,middle_atlantic,40.959772,-74.074409
buchanan,ia,125.5,37.5,107.3,9.2,54383,west_north_central,42.470778,-91.837839
pondera,mt,154.0,37.4,87.7,20.1,40694,mountain,48.227938,-112.226707
st. clair,il,123.0,45.9,126.2,18.3,48343,east_north_central,38.470305,-89.92841
greene,oh,137.6,35.4,118.7,12.8,60093,east_north_central,39.69148,-83.889885
mcdonough,il,107.5,50.2,111.9,21.1,41661,east_north_central,40.456211,-90.67791
somerset,pa,104.1,50.5,104.2,12.7,42712,middle_atlantic,39.97244,-79.028272
macoupin,il,126.0,51.5,132.2,13.9,50089,east_north_central,39.261015,-89.924433
marathon,wi,139.1,37.4,133.9,11.1,51830,east_north_central,44.898286,-89.759059
antelope,ne,123.3,55.4,134.3,12.8,48814,west_north_central,42.176903,-98.066685
canadian,ok,125.1,49.0,167.3,7.3,63889,west_south_central,35.542444,-97.982383
leake,ms,115.6,60.5,108.7,27.9,34099,east_south_central,32.753535,-89.524057
loudon,tn,133.8,28.6,128.0,14.2,53230,east_south_central,35.741071,-84.299156
lafayette parish,la,140.2,52.2,161.9,15.6,54978,west_south_central,30.206772,-92.06388
williamson,il,104.7,55.7,108.6,16.2,44041,east_north_central,37.730247,-88.929937
butler,mo,126.3,49.0,102.4,22.0,35381,west_north_central,36.716417,-90.406556
pontotoc,ok,98.8,43.3,114.5,20.5,40479,west_south_central,34.728,-96.684439
acadia parish,la,120.7,57.6,132.5,19.0,38788,west_south_central,30.290533,-92.411979
washington,il,110.1,66.2,153.6,9.9,53967,east_north_central,38.352175,-89.410454
glacier,mt,102.7,58.7,119.2,31.0,33648,mountain,48.705034,-112.994709
marion,or,120.8,39.5,121.4,18.8,46919,pacific,44.903299,-122.584593
carteret,nc,125.3,41.9,104.2,15.2,46227,south_atlantic,34.864013,-76.532491
harnett,nc,127.4,40.2,115.0,18.5,45257,south_atlantic,35.3686,-78.869314
clermont,oh,127.3,42.6,115.0,9.7,61398,east_north_central,39.047433,-84.151918
amador,ca,149.8,38.0,114.0,14.3,52357,pacific,38.44639,-120.651116
moore,nc,131.7,34.3,135.5,14.3,50169,south_atlantic,35.310721,-79.481308
venango,pa,122.3,43.8,113.9,15.8,41736,middle_atlantic,41.400969,-79.757946
beauregard parish,la,112.1,38.5,120.3,16.6,46225,west_south_central,30.648469,-93.343339
iroquois,il,120.6,55.7,94.2,14.0,46977,east_north_central,40.747226,-87.824304
lamar,al,137.8,57.4,145.4,23.0,36475,east_south_central,33.779206,-88.096899
madison,ga,119.9,59.5,116.8,18.7,43611,south_atlantic,34.127784,-83.209037
adair,mo,136.9,41.2,102.2,24.9,35282,west_north_central,40.190562,-92.600719
porter,in,125.3,46.6,125.9,11.7,64530,east_north_central,41.508838,-87.073319
chickasaw,ms,121.0,55.4,165.7,24.4,32525,east_south_central,33.9208,-88.947864
jackson,il,120.6,48.0,97.0,29.5,34243,east_north_central,37.78514,-89.382116
marion,ms,118.1,53.9,125.2,27.5,32628,east_south_central,31.230817,-89.822443
ozaukee,wi,142.8,35.4,150.7,6.0,74392,east_north_central,43.365649,-87.594466
napa,ca,138.5,40.2,134.3,9.7,68619,pacific,38.506474,-122.330533
grainger,tn,102.0,48.4,124.1,19.0,35301,east_south_central,36.276255,-83.509621
chesterfield,va,135.1,40.9,166.6,8.0,67454,south_atlantic,37.378519,-77.586942
paulding,ga,123.1,44.2,118.5,11.6,60008,south_atlantic,33.920546,-84.867288
dorchester,sc,145.4,40.6,144.1,13.3,55193,south_atlantic,33.079493,-80.405561
aroostook,me,102.4,46.0,118.6,16.4,37092,new_england,46.658811,-68.598888
chambers,al,114.0,49.7,160.9,22.5,33883,east_south_central,32.914372,-85.392043
ogle,il,122.5,40.8,83.1,13.0,51334,east_north_central,42.042645,-89.320654
union,oh,120.1,39.7,108.5,7.8,68650,east_north_central,40.299403,-83.371581
greenwood,sc,132.3,40.6,100.3,25.6,37217,south_atlantic,34.153828,-82.125929
skagit,wa,137.7,43.1,140.5,16.3,52525,pacific,48.48215,-121.80227
dorchester,md,123.0,48.7,150.4,17.7,42542,south_atlantic,38.422608,-76.083325
camden,nc,134.3,32.4,153.2,9.5,60537,south_atlantic,36.341449,-76.16112
moultrie,il,137.3,38.0,98.9,12.4,47645,east_north_central,39.641479,-88.619299
frederick,va,139.4,35.9,81.6,7.9,68166,south_atlantic,39.204556,-78.262581
jones,nc,114.0,46.3,139.0,20.7,39602,south_atlantic,35.0217,-77.355258
lee,nc,129.6,45.2,112.3,17.9,48061,south_atlantic,35.475169,-79.171426
king,wa,143.8,35.5,127.0,12.4,71779,pacific,47.490844,-121.83583
dane,wi,132.0,34.9,99.7,13.7,60326,east_north_central,43.067406,-89.418335
ohio,ky,130.8,53.2,123.8,19.1,40622,east_south_central,37.478192,-86.84889
menard,il,134.7,46.9,101.3,10.8,60151,east_north_central,40.027397,-89.80217
brooke,wv,130.4,32.2,127.3,14.7,43719,south_atlantic,40.273818,-80.57642
hamblen,tn,123.2,43.8,102.3,20.5,38807,east_south_central,36.217152,-83.266663
rock island,il,119.9,44.3,118.3,15.8,48160,east_north_central,41.46733,-90.567426
boone,in,141.9,34.8,104.0,7.3,68047,east_north_central,40.050801,-86.468696
medina,oh,125.2,39.1,130.9,6.6,66720,east_north_central,41.117589,-81.899709
fayette,tn,146.8,52.0,151.4,14.7,56058,east_south_central,35.197079,-89.414374
plymouth,ia,96.1,54.5,123.4,8.3,58113,west_north_central,42.737847,-96.214027
ward,nd,133.6,48.1,143.5,8.9,56192,west_north_central,48.221746,-101.541828
ripley,mo,118.7,39.0,105.1,23.6,30843,west_north_central,36.652817,-90.863884
worcester,md,142.1,34.1,139.9,13.1,52276,south_atlantic,38.216501,-75.296669
marion,fl,127.4,43.1,132.1,19.6,38783,south_atlantic,29.210202,-82.056676
autauga,al,150.8,46.2,110.6,13.5,51868,east_south_central,32.534921,-86.642757
clark,wa,132.6,36.6,87.9,12.6,57886,pacific,45.779266,-122.482587
owen,in,96.6,50.0,86.0,15.0,42994,east_north_central,39.312812,-86.837652
carroll,ga,115.8,48.9,117.5,17.9,45493,south_atlantic,33.582798,-85.079763
polk,fl,120.9,43.0,124.9,19.3,42447,south_atlantic,27.948866,-81.697681
huron,oh,116.4,46.4,109.0,14.6,44825,east_north_central,41.146154,-82.598408
jackson,mo,128.6,41.6,85.6,17.2,46802,west_north_central,39.008502,-94.346091
hall,ga,117.8,40.5,132.6,20.8,46986,south_atlantic,34.316889,-83.819681
bowman,nd,160.2,63.2,157.3,8.0,60429,west_north_central,46.112609,-103.520713
day,sd,123.1,34.0,117.9,14.3,44188,west_north_central,45.367152,-97.607409
henderson,ky,119.1,57.3,97.5,19.5,42492,east_south_central,37.795898,-87.573161
bolivar,ms,123.3,80.5,178.8,37.7,29622,east_south_central,33.795539,-90.880401
sheboygan,wi,131.5,39.5,127.0,11.0,52106,east_north_central,43.719707,-87.634775
washington,ok,120.0,43.5,79.3,13.8,46836,west_south_central,36.715236,-95.90437
lincoln,wv,109.5,47.5,90.5,23.7,35524,south_atlantic,38.175365,-82.070392
clatsop,or,121.5,48.5,115.8,16.7,43048,pacific,46.017467,-123.716773
blaine,mt,137.4,51.9,174.0,28.2,35215,mountain,48.432676,-108.958602
la crosse,wi,143.6,34.9,137.1,14.8,51324,east_north_central,43.906552,-91.115196
ballard,ky,118.6,42.0,94.8,17.1,42712,east_south_central,37.058431,-88.999342
okanogan,wa,118.6,33.8,135.2,21.7,39014,pacific,48.548851,-119.740786
butler,oh,124.5,44.1,120.9,13.3,55992,east_north_central,39.438616,-84.575645
lincoln,mo,113.0,46.1,88.5,11.9,54144,west_north_central,39.058019,-90.960045
randolph,il,97.2,57.9,102.1,14.1,44991,east_north_central,38.052124,-89.825311
lake,il,135.8,39.3,112.7,9.5,75106,east_north_central,42.325323,-87.631209
malheur,or,116.2,43.3,137.2,29.4,34565,pacific,43.193409,-117.623069
coffee,tn,111.0,46.7,93.9,19.8,43375,east_south_central,35.490616,-86.074763
crawford,il,141.7,40.3,136.3,14.0,47517,east_north_central,39.002686,-87.759557
pend oreille,wa,120.9,38.0,95.8,18.8,44882,pacific,48.532299,-117.273973
benton,in,82.2,48.3,90.1,11.9,49318,east_north_central,40.606258,-87.310906
jefferson parish,la,133.1,43.3,151.6,18.9,46547,west_south_central,29.677458,-90.097765
pickaway,oh,129.5,39.9,86.4,13.6,52666,east_north_central,39.641941,-83.024392
oconee,sc,126.3,39.7,122.6,16.8,42077,south_atlantic,34.753512,-83.065883
winnebago,il,117.4,42.2,105.2,16.3,47214,east_north_central,42.336265,-89.160853
franklin,oh,128.4,41.0,134.4,17.7,51456,east_north_central,39.969546,-83.009298
sanders,mt,123.3,34.7,101.0,21.9,34847,mountain,47.674788,-115.13331
fulton,pa,117.4,37.5,102.6,12.5,46032,middle_atlantic,39.925344,-78.112684
martinsville city,va,145.0,64.6,91.5,25.8,31046,south_atlantic,36.682659,-79.863632
seminole,ok,99.6,44.2,104.7,23.7,34731,west_south_central,35.167486,-96.615518
tulsa,ok,135.6,43.1,134.8,15.7,48082,west_south_central,36.121078,-95.941482
montgomery,ia,132.1,44.8,103.7,15.0,44669,west_north_central,41.03014,-95.156376
adair,ky,117.7,48.9,85.0,25.0,31710,east_south_central,37.104156,-85.280649
benton,tn,103.2,50.2,154.9,21.3,35559,east_south_central,36.069784,-88.068273
yamhill,or,137.3,37.7,95.8,14.3,57427,pacific,45.232595,-123.308141
pamlico,nc,140.8,26.7,119.7,19.0,43517,south_atlantic,35.151521,-76.667161
marshall,wv,116.1,50.8,125.3,16.9,41583,south_atlantic,39.860613,-80.663387
camp,tx,141.3,46.4,103.7,18.1,37941,west_south_central,32.973225,-94.978477
pleasants,wv,104.3,34.6,119.6,15.0,43172,south_atlantic,39.370938,-81.16063
placer,ca,140.7,36.5,129.9,8.3,73643,pacific,39.063427,-120.717652
union,or,138.4,42.2,126.9,19.4,41331,pacific,45.310346,-118.008997
st. bernard parish,la,114.2,51.8,125.3,21.9,40705,west_south_central,29.904726,-89.304127
jasper,ia,133.2,48.1,105.2,9.8,55492,west_north_central,41.686039,-93.053765
chester,sc,129.9,46.6,150.2,21.6,36523,south_atlantic,34.692057,-81.159531
yellowstone,mt,119.6,38.1,141.2,12.9,52079,mountain,45.937335,-108.274418
johnson,mo,114.4,46.7,118.1,17.7,45011,west_north_central,38.744085,-93.806367
upshur,wv,101.9,50.9,113.4,20.6,37676,south_atlantic,38.897826,-80.233423
spalding,ga,122.1,50.6,173.8,21.1,39068,south_atlantic,33.260869,-84.28416
blair,pa,117.3,51.0,98.7,16.2,41756,middle_atlantic,40.480995,-78.348604
kenosha,wi,121.3,40.6,120.3,15.8,51929,east_north_central,42.578504,-87.653119
montgomery,oh,127.6,38.8,116.5,18.8,43103,east_north_central,39.754587,-84.290682
snyder,pa,120.6,39.6,106.9,12.0,45558,middle_atlantic,40.769838,-77.070186
alleghany,nc,115.0,43.3,119.2,21.2,37086,south_atlantic,36.491339,-81.12719
cook,il,128.6,46.8,135.4,17.8,53795,east_north_central,41.895417,-87.646165
forsyth,nc,136.2,36.3,156.4,20.5,46163,south_atlantic,36.130485,-80.256365
accomack,va,104.2,38.9,135.8,19.3,38064,south_atlantic,37.764939,-75.756557
muscogee,ga,136.3,48.1,171.6,22.9,40414,south_atlantic,32.509961,-84.877041
scott,il,152.8,63.8,151.2,13.3,46004,east_north_central,39.644142,-90.474696
pocahontas,ia,127.8,50.2,108.1,11.5,50401,west_north_central,42.734135,-94.678747
bollinger,mo,119.4,46.0,95.3,19.6,37627,west_north_central,37.322191,-90.025947
noble,ok,109.0,59.8,132.9,13.4,47028,west_south_central,36.388596,-97.230512
shasta,ca,134.3,37.1,122.8,19.7,41236,pacific,40.763767,-122.040522
monroe,wi,133.2,36.2,115.3,14.2,51411,east_north_central,43.945717,-90.617826
northumberland,pa,117.1,40.6,130.0,14.7,41078,middle_atlantic,40.851985,-76.709321
stoddard,mo,107.6,61.3,115.6,16.3,37689,west_north_central,36.855622,-89.94431
outagamie,wi,131.4,38.7,124.1,8.6,57124,east_north_central,44.416092,-88.464932
waupaca,wi,126.9,45.6,115.4,12.3,48056,east_north_central,44.470454,-88.964786
appanoose,ia,80.6,57.2,86.3,17.2,37683,west_north_central,40.743163,-92.86861
whiteside,il,122.9,38.1,120.4,12.1,50489,east_north_central,41.756265,-89.914092
surry,va,107.9,38.7,140.6,13.6,50554,south_atlantic,37.116912,-76.88831
marion,in,126.7,39.7,86.5,21.3,41478,east_north_central,39.78171,-86.138472
lamar,ga,130.1,46.4,165.3,19.7,40915,south_atlantic,33.076536,-84.139463
caledonia,vt,104.3,49.6,106.0,14.3,43011,new_england,44.464704,-72.102213
morehouse parish,la,121.0,48.2,157.6,27.6,28951,west_south_central,32.820218,-91.801797
kosciusko,in,121.7,48.8,102.6,12.7,51603,east_north_central,41.244097,-85.860718
benton,mo,121.5,43.9,108.1,23.1,32563,west_north_central,38.294849,-93.287946
pickens,sc,125.3,37.3,114.2,18.7,42400,south_atlantic,34.887516,-82.725316
blount,tn,121.2,39.4,122.0,14.9,45348,east_south_central,35.687238,-83.925531
darke,oh,113.0,57.0,105.3,14.6,43465,east_north_central,40.13323,-84.619313
windham,ct,127.4,42.2,84.6,13.0,55948,new_england,41.830029,-71.987488
gilmer,wv,64.3,48.8,113.9,31.1,35344,south_atlantic,38.924062,-80.857084
mercer,wv,115.2,50.8,112.3,26.7,34320,south_atlantic,37.405515,-81.111444
stanly,nc,120.5,41.2,121.2,17.7,42801,south_atlantic,35.31199,-80.250924
grand,ut,148.9,36.2,105.1,14.8,42368,mountain,38.981945,-109.569834
parker,tx,138.1,42.1,97.6,11.8,61199,west_south_central,32.777646,-97.805097
laurens,sc,122.9,47.6,114.3,23.0,36771,south_atlantic,34.483568,-82.005934
ben hill,ga,118.8,35.6,154.8,31.9,30090,south_atlantic,31.759782,-83.220459
tippecanoe,in,122.4,44.7,99.9,19.6,47808,east_north_central,40.388619,-86.894097
davidson,nc,126.1,42.1,125.6,19.3,40424,south_atlantic,35.793278,-80.212685
hendricks,in,133.0,35.6,110.1,6.4,68575,east_north_central,39.769517,-86.509976
androscoggin,me,108.4,39.2,113.0,16.5,44097,new_england,44.165848,-70.206445
calumet,wi,123.3,36.9,127.2,6.4,66657,east_north_central,44.081603,-88.218058
potter,pa,99.5,49.4,132.7,15.4,39781,middle_atlantic,41.744921,-77.895814
walker,al,103.6,42.4,139.7,22.0,37193,east_south_central,33.803335,-87.297357
monona,ia,121.3,52.1,110.6,12.5,41461,west_north_central,42.051666,-95.959923
bristol,ri,114.5,31.0,122.8,8.2,68415,new_england,41.705544,-71.286119
coos,nh,118.8,37.3,113.1,14.8,40917,new_england,44.689599,-71.305417
marion,ar,118.7,31.5,132.1,19.0,34217,west_south_central,36.268347,-92.68422
spokane,wa,137.3,36.1,111.9,17.0,47577,pacific,47.620639,-117.404009
benton,wa,141.3,42.3,116.3,13.2,59264,pacific,46.239776,-119.511198
wayne,tn,97.1,49.7,111.7,22.0,33318,east_south_central,35.239916,-87.788012
windsor,vt,121.8,32.4,110.8,11.2,51218,new_england,43.580003,-72.586239
knox,il,116.1,44.9,108.3,19.6,39494,east_north_central,40.931817,-90.213259
del norte,ca,112.7,35.9,99.8,23.7,38663,pacific,41.744957,-123.957814
stephens,ga,101.5,56.4,111.1,20.4,36318,south_atlantic,34.553944,-83.293433
nodaway,mo,97.8,32.4,117.8,18.5,41952,west_north_central,40.360774,-94.883434
bullock,al,141.8,60.7,157.9,35.2,25937,east_south_central,32.100554,-85.715697
bureau,il,111.9,47.7,152.4,12.0,49062,east_north_central,41.404152,-89.528677
pasco,fl,112.6,40.5,111.1,13.5,45454,south_atlantic,28.30674,-82.438868
eau claire,wi,125.8,38.5,107.1,13.7,49345,east_north_central,44.726775,-91.285982
jefferson,or,121.5,45.1,91.8,21.8,41107,pacific,44.629418,-121.175443
linn,mo,100.4,65.2,132.8,19.6,37773,west_north_central,39.870211,-93.107176
new york,ny,134.2,36.0,140.6,19.0,71443,middle_atlantic,40.773465,-73.9704
berkeley,wv,124.0,48.0,96.5,13.2,54010,south_atlantic,39.464066,-78.027543
cherokee,nc,131.1,32.7,83.5,22.5,34476,south_atlantic,35.133836,-84.063471
burke,ga,120.3,56.9,123.7,32.0,32675,south_atlantic,33.061154,-82.000781
knox,me,122.4,31.5,103.4,14.1,48352,new_england,44.027299,-69.015547
wright,mo,139.2,49.4,85.1,29.1,29605,west_north_central,37.27014,-92.468704
screven,ga,114.9,64.8,113.1,27.9,35087,south_atlantic,32.750587,-81.611935
fremont,co,121.0,45.1,128.0,19.7,41412,mountain,38.472972,-105.439657
grundy,mo,161.6,55.3,80.4,21.4,37172,west_north_central,40.113929,-93.565335
cerro gordo,ia,115.5,46.7,124.2,11.9,46063,west_north_central,43.081558,-93.260818
kay,ok,130.4,46.8,115.2,19.6,41098,west_south_central,36.818006,-97.143923
washington,ne,136.9,44.7,116.1,7.7,66160,west_north_central,41.531038,-96.222029
mineral,wv,108.9,47.1,104.4,16.4,38320,south_atlantic,39.414722,-78.943746
jasper,ga,142.8,41.2,127.5,19.7,42343,south_atlantic,33.316434,-83.68809
delaware,in,114.9,43.4,122.5,23.0,37116,east_north_central,40.227525,-85.396899
delaware,ia,117.6,34.4,97.6,10.1,54587,west_north_central,42.471211,-91.36735
gooding,id,137.6,40.5,151.6,16.3,41310,mountain,42.970902,-114.811515
lincoln,mt,97.9,33.1,116.8,17.6,34926,mountain,48.542475,-115.405083
orange,tx,110.2,43.7,91.3,15.1,51340,west_south_central,30.121308,-93.893898
perry,oh,113.6,47.1,99.6,17.8,41586,east_north_central,39.737149,-82.236138
itawamba,ms,99.3,57.0,113.5,19.4,39927,east_south_central,34.279987,-88.361323
cass,mo,127.9,42.8,59.0,9.2,63031,west_north_central,38.647004,-94.354823
geneva,al,105.0,40.3,120.6,23.6,35378,east_south_central,31.095017,-85.838985
coles,il,125.1,45.2,94.7,19.8,39353,east_north_central,39.520287,-88.221795
kiowa,ok,135.7,59.6,114.6,21.5,34611,west_south_central,34.916368,-98.98087
new hanover,nc,123.8,31.5,99.7,18.9,48651,south_atlantic,34.181408,-77.865614
iredell,nc,139.1,40.1,138.8,12.7,49983,south_atlantic,35.807083,-80.873435
yancey,nc,123.0,30.5,108.1,21.3,35866,south_atlantic,35.898885,-82.307554
caldwell parish,la,120.7,43.5,121.0,23.4,35987,west_south_central,32.092272,-92.116606
craig,ok,116.6,52.1,129.3,19.9,36932,west_south_central,36.761761,-95.208497
lincoln,me,112.5,36.1,93.2,13.3,48908,new_england,43.997787,-69.525759
baxter,ar,116.0,38.6,122.0,15.6,36082,west_south_central,36.287189,-92.336971
troup,ga,130.8,45.7,150.9,23.8,42044,south_atlantic,33.03351,-85.028337
warren,ky,114.8,42.5,133.0,18.4,48137,east_south_central,36.993577,-86.423799
delaware,ny,105.3,45.4,89.3,17.8,43380,middle_atlantic,42.198088,-74.966466
polk,tx,112.8,44.0,141.8,18.3,39833,west_south_central,30.79272,-94.830025
delaware,oh,132.3,37.2,125.6,5.6,89016,east_north_central,40.278394,-83.004885
union,nj,129.1,42.9,153.3,11.5,64272,middle_atlantic,40.659794,-74.308587
sonoma,ca,132.3,40.3,112.9,12.4,61020,pacific,38.525293,-122.922545
black hawk,ia,122.1,40.4,132.4,16.7,46281,west_north_central,42.470096,-92.30882
hamilton,tx,106.7,35.4,82.1,17.9,39448,west_south_central,31.704803,-98.110726
granville,nc,118.6,49.8,128.7,15.3,48680,south_atlantic,36.304024,-78.653022000000007
kodiak island borough,ak,125.0,42.0,126.8,8.5,64782,pacific,57.94969,-153.542869
chouteau,mt,121.3,55.1,105.7,21.8,41177,mountain,47.88059,-110.435196
benton,ia,127.0,34.9,92.3,8.8,59179,west_north_central,42.080186,-92.065691
kearney,ne,82.3,62.3,87.5,9.2,57823,west_north_central,40.506707,-98.948022
white,il,121.8,44.3,125.6,15.5,42621,east_north_central,38.087478,-88.179567
lawrence,in,107.2,55.6,95.9,12.9,44435,east_north_central,38.841163,-86.483451
lee,ms,124.8,50.2,172.0,18.0,43221,east_south_central,34.289888,-88.680416
alachua,fl,135.0,39.8,107.9,25.7,39614,south_atlantic,29.674755,-82.357701
bay,fl,127.9,37.1,157.6,18.0,45249,south_atlantic,30.237647,-85.632623
marshall,ok,116.2,47.4,94.9,19.2,38055,west_south_central,34.02449,-96.769132
muhlenberg,ky,92.1,50.7,107.0,25.1,37048,east_south_central,37.215792,-87.142042
fayette,wv,116.9,51.9,85.6,22.6,33720,south_atlantic,38.028778,-81.081192
larue,ky,80.0,60.5,96.1,18.3,41537,east_south_central,37.545799,-85.697916
hillsborough,fl,121.8,42.7,129.5,16.8,49510,south_atlantic,27.906229,-82.346921
adams,il,115.5,48.5,115.6,15.9,43604,east_north_central,39.987894,-91.188489
caroline,md,119.7,43.7,131.5,16.7,46015,south_atlantic,38.871722,-75.831601
wabash,il,114.4,53.4,95.8,14.6,47351,east_north_central,38.446066,-87.84425
liberty,fl,123.4,41.8,68.2,27.7,36561,south_atlantic,30.241363,-84.882911000000007
knox,tn,127.6,37.3,142.7,16.3,49105,east_south_central,35.993216,-83.937086
anne arundel,md,129.0,33.8,137.9,7.3,85685,south_atlantic,38.994157,-76.567597
marshall,ia,100.4,48.0,114.8,13.4,51382,west_north_central,42.035849,-92.998771
hampden,ma,129.2,39.3,104.8,17.9,48560,new_england,42.135109,-72.63162
lake,fl,117.7,43.6,129.5,14.5,44244,south_atlantic,28.761471,-81.711299
lorain,oh,122.4,41.4,129.9,14.6,52762,east_north_central,41.452516,-82.15147
burt,ne,134.9,41.2,139.7,11.7,47749,west_north_central,41.851563,-96.328604
woodford,il,141.4,42.3,119.1,7.0,67036,east_north_central,40.788232,-89.211137
rowan,ky,103.6,56.1,94.0,24.7,37690,east_south_central,38.196256,-83.421076
scurry,tx,126.8,43.7,148.7,15.0,53219,west_south_central,32.746315,-100.916407
traill,nd,120.5,37.8,152.3,9.3,57006,west_north_central,47.454185,-97.161581
ross,oh,115.2,45.3,82.2,19.4,42730,east_north_central,39.337628,-83.057026
lake,ca,109.5,44.8,91.1,23.3,36973,pacific,39.099645,-122.753184
st. charles,mo,133.2,36.4,119.6,6.4,70468,west_north_central,38.781917,-90.674897
greer,ok,125.2,46.9,106.1,21.7,34806,west_south_central,34.935705,-99.560802
butler,ne,135.2,40.2,135.4,9.8,46211,west_north_central,41.226077,-97.131769
terrebonne parish,la,111.4,51.1,139.9,15.2,51716,west_south_central,29.337442,-90.83764
monroe,pa,117.4,41.0,117.3,12.0,55273,middle_atlantic,41.058068,-75.339476
hancock,ia,107.8,56.1,137.7,10.1,54835,west_north_central,43.081886,-93.734272
marinette,wi,112.4,40.0,118.6,14.3,41446,east_north_central,45.350897,-88.002218
st. joseph,in,121.3,45.8,117.5,20.1,40978,east_north_central,41.616718,-86.289858
douglas,ga,117.7,45.7,133.6,17.9,51941,south_atlantic,33.701828,-84.767973
wayne,nc,119.6,45.5,138.6,20.8,41526,south_atlantic,35.363793,-78.004131
greene,il,132.4,73.0,118.9,18.3,41588,east_north_central,39.356199,-90.390494
coshocton,oh,99.8,44.7,73.6,14.4,39496,east_north_central,40.301641,-81.920011
jackson,ok,115.6,45.6,115.5,17.3,41147,west_south_central,34.587971,-99.414757
grant,ar,112.7,62.5,136.7,14.2,47089,west_south_central,34.290018,-92.423583
newton,ga,121.1,45.7,154.6,15.0,50862,south_atlantic,33.555049,-83.850187
clark,wi,123.7,44.7,130.8,14.5,42477,east_north_central,44.734728,-90.612059
st. mary parish,la,132.6,56.0,164.8,22.3,39608,west_south_central,29.634623,-91.472926
woodbury,ia,109.5,46.8,131.7,16.5,45678,west_north_central,42.389729,-96.044795
pearl river,ms,118.8,48.1,125.5,23.4,41706,east_south_central,30.76858,-89.589783
madison,oh,115.1,38.8,107.9,12.2,54039,east_north_central,39.89403,-83.400199
berkshire,ma,119.6,40.6,120.4,12.8,51431,new_england,42.370674,-73.206404
irwin,ga,117.1,43.9,105.3,26.5,35854,south_atlantic,31.602283,-83.276375
brown,wi,119.5,36.2,130.5,12.1,51956,east_north_central,44.474328,-87.992858
wood,wi,126.4,32.8,130.8,11.7,48723,east_north_central,44.455334,-90.041543
johnson,in,117.5,46.3,62.4,11.8,58936,east_north_central,39.489971,-86.101637
karnes,tx,106.8,53.3,70.4,23.2,43413,west_south_central,28.905739,-97.859402
deschutes,or,124.7,33.1,133.3,15.2,49427,pacific,43.914883,-121.227892
cass,ia,94.1,64.2,128.7,14.8,45191,west_north_central,41.331488,-94.927827
greene,tn,115.2,39.6,99.0,19.6,35980,east_south_central,36.175364,-82.845817
carbon,wy,93.4,39.6,96.2,14.2,54210,mountain,41.694589,-106.93061
anchorage borough,ak,127.8,40.9,113.0,7.7,76362,pacific,61.148133,-149.194236
sacramento,ca,132.5,41.9,122.7,18.9,52980,pacific,38.449315,-121.344243
perry,in,124.7,39.1,77.5,14.2,45722,east_north_central,38.079649,-86.638032
perry,ar,115.0,33.4,125.8,17.5,42328,west_south_central,34.947375,-92.931471
morgan,ga,135.9,52.6,145.6,17.1,48337,south_atlantic,33.590825,-83.492382
ritchie,wv,94.8,64.4,77.8,19.1,38147,south_atlantic,39.178267,-81.062947
clay,fl,120.7,39.7,117.1,9.9,57991,south_atlantic,29.983068,-81.857884
virginia beach city,va,132.5,36.9,113.4,9.0,62509,south_atlantic,36.777838,-76.016372
juniata,pa,104.0,41.5,55.8,11.8,46183,middle_atlantic,40.531065,-77.402163
trumbull,oh,114.8,46.2,111.9,18.7,41951,east_north_central,41.317175,-80.76116
marshall,tn,121.5,42.4,116.8,14.6,42363,east_south_central,35.468861,-86.765017
ashland,wi,104.6,45.1,115.2,18.1,37909,east_north_central,46.700711,-90.564508
coahoma,ms,117.1,66.0,121.6,39.5,27500,east_south_central,34.229166,-90.602687
morgan,ky,89.8,58.1,112.6,29.4,31579,east_south_central,37.922281,-83.258893
randolph,in,119.3,47.7,133.9,18.1,41057,east_north_central,40.15764,-85.01131
charleston,sc,132.1,36.4,139.5,17.4,51206,south_atlantic,32.825051,-79.896811
colleton,sc,113.4,45.5,119.6,24.0,33817,south_atlantic,32.843426,-80.649684
hinds,ms,129.3,54.2,164.3,29.7,34826,east_south_central,32.266705,-90.442819
caddo,ok,85.6,55.0,106.3,21.1,37298,west_south_central,35.174379,-98.375147
deer lodge,mt,102.9,39.0,115.2,17.7,37542,mountain,46.060771,-113.067842
solano,ca,131.1,40.5,141.4,12.9,63398,pacific,38.266919,-121.940007
schuyler,il,124.2,42.5,131.0,13.2,49808,east_north_central,40.158028,-90.615067
okeechobee,fl,110.3,50.9,73.8,25.7,35954,south_atlantic,27.386292,-80.888576
sumner,tn,133.1,36.0,132.8,11.0,56077,east_south_central,36.469409,-86.460355
carter,ok,109.8,41.7,119.3,17.3,43030,west_south_central,34.250864,-97.285787
caldwell,mo,117.1,54.9,158.8,15.3,41546,west_north_central,39.655751,-93.982799
geauga,oh,129.6,39.2,111.5,7.4,69078,east_north_central,41.499542,-81.178655
berkeley,sc,125.0,38.1,117.4,15.7,50794,south_atlantic,33.19768,-79.950987
clay,sd,137.6,43.0,101.9,20.8,41970,west_north_central,42.914654,-96.975655
dougherty,ga,122.4,47.1,197.6,31.3,31575,south_atlantic,31.533374,-84.216254
wilbarger,tx,121.2,65.1,99.6,17.5,37840,west_south_central,34.080717,-99.241079
bedford,pa,126.4,41.8,135.2,13.5,48003,middle_atlantic,40.006555,-78.490317
lewis,ny,94.2,55.8,105.7,14.8,45926,middle_atlantic,43.784691,-75.448794
jefferson,pa,112.5,47.4,152.7,15.5,41637,middle_atlantic,41.128145,-78.999421
cheyenne,ne,148.9,28.6,135.4,9.9,53430,west_north_central,41.219779,-102.994979
kankakee,il,112.1,46.1,136.0,16.7,49584,east_north_central,41.137705,-87.861798
dallas,al,134.0,62.4,213.6,31.3,27524,east_south_central,32.325975,-87.106479
jay,in,122.6,65.7,100.6,16.0,41847,east_north_central,40.437918,-85.005635
mclean,il,131.0,42.1,157.0,13.8,62261,east_north_central,40.49089,-88.847323
clarke,ga,129.7,40.5,170.7,37.2,32864,south_atlantic,33.951168,-83.367332
tipton,tn,114.8,47.8,134.5,14.4,53183,east_south_central,35.49687,-89.759244
page,va,117.1,40.4,70.0,15.3,41070,south_atlantic,38.619976,-78.484132
dewey,ok,122.6,55.5,141.7,12.4,49308,west_south_central,35.98766,-99.007892
haralson,ga,94.6,49.5,108.7,22.2,39548,south_atlantic,33.794233,-85.211026
addison,vt,133.8,32.1,115.6,10.5,54683,new_england,44.030909,-73.140941
douglas,il,115.8,41.0,144.1,10.7,49179,east_north_central,39.769464,-88.217355
elmore,id,103.7,48.2,121.7,16.6,42680,mountain,43.3539,-115.469179
monroe,ky,115.1,55.4,123.2,23.8,29900,east_south_central,36.71218,-85.71652
fayette,al,113.2,58.9,115.9,20.7,35661,east_south_central,33.721206,-87.738862
suffolk city,va,140.7,44.8,140.9,11.5,59468,south_atlantic,36.701782,-76.634099
elkhart,in,112.9,42.1,102.9,15.5,46123,east_north_central,41.597384,-85.858755
madison,ia,139.2,37.9,101.6,8.4,59074,west_north_central,41.330714,-94.015562
mccracken,ky,114.8,43.5,117.0,19.8,42069,east_south_central,37.054081,-88.712722
adams,ms,130.8,62.0,158.1,30.9,31385,east_south_central,31.482943,-91.353498
cape girardeau,mo,131.4,37.6,116.4,15.8,44248,west_north_central,37.384041,-89.684454
osceola,ia,132.9,71.6,109.8,9.1,51017,west_north_central,43.37857,-95.623685
jackson,wv,119.2,41.8,120.0,18.1,38640,south_atlantic,38.834468,-81.674794
shelby,mo,155.8,66.1,111.7,17.2,40420,west_north_central,39.797776,-92.076616
webster parish,la,117.9,45.0,134.9,23.7,35762,west_south_central,32.713454,-93.334983
russell,ky,95.4,48.3,75.9,25.5,30985,east_south_central,36.991034,-85.058688
warren,ms,115.2,57.5,127.4,26.2,41883,east_south_central,32.35723,-90.852011
halifax,nc,133.0,44.4,138.9,31.6,32597,south_atlantic,36.257504,-77.651882
gordon,ga,117.5,44.0,95.9,18.4,42291,south_atlantic,34.503359,-84.875753
marion,ky,111.0,60.5,126.3,18.5,39665,east_south_central,37.552534,-85.269632
montezuma,co,121.4,30.9,130.0,19.1,43655,mountain,37.338425,-108.596662
allen,oh,116.7,43.6,108.4,16.1,43274,east_north_central,40.771521,-84.105779
trinity,tx,103.3,56.4,65.6,20.9,33447,west_south_central,31.088817,-95.135509
somerset,me,104.7,42.0,84.8,17.8,38279,new_england,45.513867,-69.958821
washington,or,134.6,33.8,103.4,10.9,63632,pacific,45.560072,-123.098388
warren,tn,109.4,42.9,110.4,20.3,36327,east_south_central,35.678683,-85.778498
nez perce,id,128.9,30.4,140.7,13.4,46753,mountain,46.326761,-116.750235
wyandot,oh,117.5,54.9,118.8,11.2,46568,east_north_central,40.842369,-83.304373
seneca,oh,120.0,51.7,111.9,13.9,47121,east_north_central,41.12388,-83.127705
jackson,or,131.6,36.7,100.8,18.7,43393,pacific,42.432149,-122.728431
gregg,tx,128.8,51.3,124.3,17.0,46501,west_south_central,32.480471,-94.816948
lamar,tx,123.8,48.8,124.1,18.3,37593,west_south_central,33.667262,-95.571201
isle of wight,va,143.3,35.3,117.2,10.6,62495,south_atlantic,36.906729,-76.709126
ashe,nc,108.5,36.4,88.9,22.4,35155,south_atlantic,36.434157,-81.500343
allen parish,la,114.6,56.9,106.4,19.8,38122,west_south_central,30.652871,-92.827879
upson,ga,111.2,51.4,160.8,22.3,34709,south_atlantic,32.88127,-84.299344
calcasieu parish,la,118.5,49.7,147.1,16.6,43779,west_south_central,30.229224,-93.357945
island,wa,138.1,40.1,135.7,10.9,53306,pacific,48.162915,-122.575258
wayne,pa,108.1,41.5,96.2,11.8,45807,middle_atlantic,41.648731,-75.303258
hocking,oh,126.0,46.2,88.3,16.2,42376,east_north_central,39.497024,-82.479254
chariton,mo,121.3,35.2,127.9,16.8,40352,west_north_central,39.515081,-92.962624
johnson,tn,107.1,43.1,64.8,28.1,30652,east_south_central,36.454936,-81.851755
hart,ky,88.4,49.8,79.2,27.9,33588,east_south_central,37.299927,-85.884709
hampshire,ma,131.6,44.0,97.9,13.1,61911,new_england,42.340138,-72.663765
frederick,md,122.3,43.9,115.7,6.9,83489,south_atlantic,39.472213000000004,-77.397984
fayette,ia,115.7,54.8,118.8,13.9,44739,west_north_central,42.862592,-91.844321
bradley,tn,110.4,41.8,113.0,18.6,42665,east_south_central,35.15411,-84.859603
callaway,mo,120.4,38.7,132.2,13.8,45573,west_north_central,38.835524,-91.926014
grafton,nh,128.8,33.2,107.3,11.1,55131,new_england,43.940738,-71.82055
crittenden,ky,112.5,59.6,64.7,22.2,37372,east_south_central,37.352715,-88.097223
henderson,nc,132.4,42.5,125.8,15.5,44561,south_atlantic,35.336292,-82.479907
carroll,nh,124.0,37.4,138.8,10.4,50598,new_england,43.873914,-71.20277
massac,il,120.2,45.0,113.3,17.5,41373,east_north_central,37.219027,-88.707744
horry,sc,114.3,41.3,136.7,19.1,41808,south_atlantic,33.904479,-78.976149
ada,id,129.0,35.2,146.8,13.6,53420,mountain,43.451118,-116.241086
bath,va,141.2,39.5,81.8,11.7,42951,south_atlantic,38.058692,-79.741089
warrick,in,139.4,40.9,109.2,7.9,61820,east_north_central,38.092166,-87.272054
grant parish,la,62.1,56.4,127.4,21.2,41208,west_south_central,31.599704,-92.55952
lancaster,pa,122.5,39.8,113.0,10.5,56766,middle_atlantic,40.042438,-76.247704
portage,oh,114.9,38.3,133.0,16.9,52576,east_north_central,41.167683,-81.197404
person,nc,111.3,42.4,128.9,18.4,42091,south_atlantic,36.390115,-78.971714
union,ms,109.8,62.9,138.0,18.8,40148,east_south_central,34.490474,-89.003857
dickson,tn,109.2,55.1,146.5,15.0,44991,east_south_central,36.149048,-87.356655
fannin,ga,112.6,40.3,106.0,22.5,35673,south_atlantic,34.864098,-84.319857
bibb,ga,124.7,47.8,167.8,29.2,36816,south_atlantic,32.806498,-83.69742
gloucester,va,121.6,33.2,159.8,10.6,58824,south_atlantic,37.401209,-76.522967
harrison,ky,90.7,50.5,106.3,17.4,42228,east_south_central,38.441807,-84.331385
hancock,wv,111.3,54.2,120.9,14.6,40249,south_atlantic,40.521855,-80.573892
grant,wi,112.2,40.7,111.6,17.2,45854,east_north_central,42.867482,-90.70622
woodford,ky,98.8,44.7,130.2,11.0,59233,east_south_central,38.042388,-84.743594
clayton,ia,118.3,47.5,111.4,12.0,48626,west_north_central,42.844749,-91.341433
mahaska,ia,95.0,59.7,120.3,14.0,48978,west_north_central,41.335203,-92.640909
pottawatomie,ok,126.6,39.4,126.3,19.0,44405,west_south_central,35.206721,-96.948301
mitchell,nc,108.1,38.9,101.5,18.3,38303,south_atlantic,36.013291,-82.163466
gibson,tn,120.8,49.5,109.7,18.0,40083,east_south_central,35.996611,-88.932625
haywood,nc,114.7,32.4,123.6,20.4,39320,south_atlantic,35.556054,-82.982243
cumberland,tn,119.6,39.0,141.4,18.2,36163,east_south_central,35.950388,-84.998352
pope,ar,106.3,43.8,134.2,20.0,39704,west_south_central,35.447633,-93.03416
cocke,tn,92.8,41.7,93.3,24.7,30950,east_south_central,35.925424,-83.121159
wilson,tn,125.4,38.7,112.5,10.8,59655,east_south_central,36.154851,-86.297725
cleveland,nc,137.0,47.6,151.8,19.6,40528,south_atlantic,35.334112,-81.55561
knox,ne,126.1,36.6,133.0,15.1,41066,west_north_central,42.636782,-97.891897
hampton city,va,131.1,36.9,174.3,15.6,45293,south_atlantic,37.048728,-76.29536
monroe,tn,107.4,32.5,107.0,19.7,38061,east_south_central,35.442647,-84.252789
washington,ky,113.6,50.2,134.3,16.8,42500,east_south_central,37.75338,-85.174746
cole,mo,141.4,38.4,114.5,13.7,52023,west_north_central,38.505414,-92.2816
vance,nc,131.8,55.4,132.5,27.3,35565,south_atlantic,36.364762,-78.408331
hunt,tx,101.5,50.5,109.9,17.9,44361,west_south_central,33.123595,-96.085455
washington,id,136.1,38.1,174.4,17.9,37539,mountain,44.452426,-116.784771
bartholomew,in,122.4,40.2,86.1,11.6,54341,east_north_central,39.205973,-85.897605
stafford,va,125.6,33.1,104.8,6.4,93014,south_atlantic,38.4207,-77.457428
preble,oh,107.8,48.6,111.9,13.1,47251,east_north_central,39.741527,-84.648015
valley,id,129.5,24.8,121.5,11.7,48879,mountain,44.766702,-115.566128
ransom,nd,124.9,76.4,127.3,8.8,58578,west_north_central,46.45616,-97.657455
lampasas,tx,101.2,34.3,97.2,14.8,48746,west_south_central,31.196191,-98.241445
benton,or,130.3,34.7,106.2,20.8,50714,pacific,44.491759,-123.429311
lamoille,vt,132.8,39.4,101.6,12.3,46742,new_england,44.605731,-72.641429
tehama,ca,117.2,40.6,119.4,17.9,43459,pacific,40.125736,-122.233885
davidson,tn,130.4,40.3,135.8,17.8,47239,east_south_central,36.169458,-86.78493
clinton,in,113.1,48.0,94.1,14.4,47279,east_north_central,40.301691,-86.47516
lincoln,nc,126.9,33.9,120.6,14.6,50537,south_atlantic,35.486179,-81.223866
overton,tn,97.3,53.4,100.3,20.4,35457,east_south_central,36.344998,-85.288081
st. lawrence,ny,101.8,43.5,155.2,21.4,43556,middle_atlantic,44.496391,-75.06897
marin,ca,137.5,35.8,136.7,8.7,94347,pacific,38.055183,-122.748859
essex,ny,110.6,44.1,105.0,11.7,46337,middle_atlantic,44.117218,-73.772709
boone,mo,135.9,39.5,139.2,19.8,49118,west_north_central,38.990615,-92.30968
panola,ms,119.4,48.3,145.5,25.9,33129,east_south_central,34.363935,-89.950567
lafourche parish,la,119.8,44.8,132.0,16.5,52115,west_south_central,29.500332,-90.402595
washington,mo,104.8,43.8,72.7,26.2,33491,west_north_central,37.961684,-90.877425
monroe,il,125.2,44.1,130.8,4.9,71604,east_north_central,38.278649,-90.177377
calhoun,il,109.3,71.1,97.2,12.0,48504,east_north_central,39.169295,-90.66753
taylor,ia,143.8,50.8,96.2,14.1,45009,west_north_central,40.737432,-94.696415
dawson,ga,121.0,37.7,98.7,15.2,52804,south_atlantic,34.444298,-84.170636
shelby,il,113.4,48.2,100.5,12.6,50569,east_north_central,39.391156,-88.805536
orleans,vt,123.7,31.9,94.2,15.0,40522,new_england,44.828809,-72.243806
lowndes,al,124.2,64.8,180.7,37.0,29734,east_south_central,32.15475,-86.650108
lewis and clark,mt,108.0,42.2,106.7,12.6,53982,mountain,47.122443,-112.390455
fillmore,ne,118.9,40.1,96.2,9.0,52606,west_north_central,40.524666,-97.596501
caroline,va,108.2,43.7,143.9,14.5,55760,south_atlantic,38.02682,-77.346961
clearfield,pa,111.0,46.1,130.0,16.5,39912,middle_atlantic,41.000193,-78.474111
columbia,or,133.1,40.5,98.9,11.8,55222,pacific,45.943766,-123.088049
powell,mt,118.8,50.5,85.4,20.0,39820,mountain,46.856415,-112.936158
casey,ky,105.0,52.5,119.9,29.7,29303,east_south_central,37.32228,-84.928369
sac,ia,105.7,65.6,137.3,10.6,51399,west_north_central,42.38626,-95.105395
berrien,ga,103.1,43.8,104.8,24.0,37903,south_atlantic,31.27606,-83.229622
chesapeake city,va,136.7,39.6,129.5,9.6,66516,south_atlantic,36.677752,-76.302433
washington,ms,114.9,75.8,150.0,34.8,28948,east_south_central,33.283698,-90.947455
story,ia,127.6,42.8,150.7,21.1,53782,west_north_central,42.036241,-93.465045
fulton,ga,135.3,39.7,170.4,18.2,55474,south_atlantic,33.790284,-84.466986
allen,ky,127.4,45.6,93.7,20.6,39798,east_south_central,36.751317,-86.190419
valley,mt,100.5,47.2,138.5,13.3,45747,mountain,48.365351,-106.667456
madison,in,114.3,42.2,128.7,19.6,41117,east_north_central,40.161656,-85.719345
wyoming,wv,80.4,35.8,80.5,24.3,34525,south_atlantic,37.609612,-81.549177
potter,tx,115.5,43.1,114.6,22.1,37366,west_south_central,35.401273,-101.894004
howard,tx,104.9,47.2,127.9,17.9,46636,west_south_central,32.30617,-101.435505
catawba,nc,126.7,39.5,111.4,16.5,43777,south_atlantic,35.662606,-81.214476
codington,sd,132.2,35.0,122.7,10.1,49022,west_north_central,44.977853,-97.188618
limestone,tx,110.3,48.9,118.1,21.4,36537,west_south_central,31.545464,-96.58053
marshall,ky,110.5,51.5,112.3,12.7,44157,east_south_central,36.883447,-88.329381
cherokee,sc,116.1,48.3,126.4,24.3,37726,south_atlantic,35.048203,-81.620391
rapides parish,la,117.3,48.6,156.6,19.7,39411,west_south_central,31.19862,-92.5332
boise,id,118.6,43.3,152.0,14.9,48974,mountain,43.989132,-115.730244
jasper,in,123.7,45.4,101.9,10.7,53757,east_north_central,41.022998,-87.116121
monroe,ms,116.4,47.0,172.5,22.8,36264,east_south_central,33.892242,-88.480467
anderson,sc,129.4,44.0,109.1,16.7,41591,south_atlantic,34.519091,-82.637885
cobb,ga,132.8,39.0,142.4,13.8,62866,south_atlantic,33.941463,-84.576673
clarke,va,149.4,45.0,98.2,7.9,74384,south_atlantic,39.112364,-77.996674
cumberland,il,80.6,60.5,105.9,12.1,47382,east_north_central,39.273317,-88.24023
natrona,wy,118.7,40.8,100.7,10.1,57701,mountain,42.96224,-106.798494
franklin,tn,110.2,42.8,102.1,19.0,41477,east_south_central,35.154961,-86.092175
brevard,fl,115.8,38.3,102.1,15.0,46677,south_atlantic,28.300314,-80.701205
morrow,or,125.2,47.7,110.6,16.8,51289,pacific,45.418827,-119.584301
kershaw,sc,133.3,47.3,134.1,16.3,44787,south_atlantic,34.338774,-80.590241
de kalb,in,126.4,50.4,98.4,12.9,50279,east_north_central,41.39758,-84.999084
yell,ar,102.6,48.5,121.2,19.7,34679,west_south_central,35.002597,-93.411249
mason,wv,97.5,42.8,128.1,22.3,36454,south_atlantic,38.769736,-82.026538
canyon,id,106.7,38.5,138.1,20.1,42237,mountain,43.625134,-116.709293
calhoun,sc,144.6,40.3,145.1,19.7,40593,south_atlantic,33.674855,-80.78028
tishomingo,ms,110.5,50.9,106.9,18.8,35891,east_south_central,34.740434,-88.239323
rutherford,tn,118.1,41.5,126.1,12.3,57056,east_south_central,35.842705,-86.416736
centre,pa,132.4,37.9,125.3,18.4,52559,middle_atlantic,40.919342,-77.819951
hale,al,125.9,44.8,223.9,25.7,33597,east_south_central,32.762664,-87.629118
el paso,co,122.6,35.6,141.1,11.4,57072,mountain,38.832089,-104.525585
newport news city,va,138.5,38.1,135.5,17.5,47421,south_atlantic,37.076068,-76.516459
allen,in,122.3,42.7,101.2,17.0,45587,east_north_central,41.090871,-85.066562
greenville,sc,127.9,36.2,126.6,16.2,49476,south_atlantic,34.894307,-82.370718
guthrie,ia,148.4,48.9,114.6,10.3,53708,west_north_central,41.683755,-94.501055
caldwell,nc,118.0,40.2,92.0,18.3,34811,south_atlantic,35.952967,-81.546549
kane,il,124.9,37.8,128.3,10.9,71444,east_north_central,41.938904,-88.428638
stokes,nc,109.8,36.7,124.7,14.4,44552,south_atlantic,36.401895,-80.239608
santa cruz,ca,136.0,31.3,141.2,14.9,65282,pacific,37.021606,-122.009787
mitchell,ia,103.2,47.5,121.6,10.2,53049,west_north_central,43.356412,-92.789031
grayson,tx,114.7,46.6,94.2,16.4,44596,west_south_central,33.626808,-96.677725
gage,ne,125.7,41.0,103.1,11.3,45212,west_north_central,40.26193,-96.689442
henry,ga,129.3,42.0,176.6,11.6,60087,south_atlantic,33.452986,-84.154184
pasquotank,nc,122.7,50.1,164.4,21.8,40094,south_atlantic,36.264899,-76.249135
honolulu,hi,138.3,46.0,106.9,9.6,72649,pacific,24.053316,-165.802325
northumberland,va,144.5,35.7,123.2,16.1,49054,south_atlantic,37.854668,-76.379523
webster,ia,108.6,40.2,132.9,15.9,45202,west_north_central,42.427966,-94.181788
wythe,va,104.8,45.9,89.9,15.1,41168,south_atlantic,36.917132,-81.07859
washington,va,132.9,36.5,82.8,14.9,42242,south_atlantic,36.724479,-81.959661
sandusky,oh,115.9,49.1,74.9,12.9,46800,east_north_central,41.357416,-83.143916
lawrence,tn,100.6,36.2,103.4,17.9,39532,east_south_central,35.217274,-87.395585
cass,nd,121.0,36.9,130.3,13.2,53077,west_north_central,46.932972,-97.248044
monroe,in,123.0,44.0,96.0,24.0,42404,east_north_central,39.160918,-86.523137
morrow,oh,107.7,58.1,116.8,13.3,49980,east_north_central,40.524087,-82.794068
dekalb,mo,122.8,45.1,63.1,17.2,44286,west_north_central,39.893176,-94.404709
jackson,ar,91.3,61.3,127.5,27.5,32923,west_south_central,35.599231,-91.214571
jefferson,ar,119.1,42.4,182.3,25.8,36169,west_south_central,34.268785,-91.931515
angelina,tx,106.3,41.8,141.5,21.5,41804,west_south_central,31.254765,-94.611849
tangipahoa parish,la,116.8,50.9,159.4,22.2,40228,west_south_central,30.626653,-90.40568
orange,nc,133.9,34.5,113.3,15.5,59472,south_atlantic,36.06132,-79.120559
boone,il,117.1,41.3,97.8,10.2,59537,east_north_central,42.32308,-88.823363
el dorado,ca,135.8,38.2,119.3,11.4,63002,pacific,38.778738,-120.524647
washington,tn,127.3,36.8,113.7,17.7,41542,east_south_central,36.293302,-82.497431
lewis,wa,114.5,39.4,92.8,18.9,41325,pacific,46.577725,-122.39241
dearborn,in,121.4,42.0,101.0,10.8,55077,east_north_central,39.145186,-84.973261
caddo parish,la,119.6,49.0,161.4,22.0,39776,west_south_central,32.580193,-93.882396
huntingdon,pa,102.1,41.4,97.4,14.8,42479,middle_atlantic,40.416934,-77.981208
treutlen,ga,119.1,44.6,99.4,30.9,31917,south_atlantic,32.403881,-82.567281
union,pa,112.5,33.8,114.9,13.5,49488,middle_atlantic,40.962966,-77.062249
new madrid,mo,100.3,56.2,119.0,23.7,34927,west_north_central,36.594645,-89.651833
randolph,ar,99.1,48.3,78.1,22.6,33148,west_south_central,36.341483,-91.027717
stephens,ok,119.7,44.8,101.9,15.9,45607,west_south_central,34.485593,-97.851484
bryan,ga,111.5,52.4,111.8,10.1,66066,south_atlantic,32.013224,-81.442472
klamath,or,113.5,44.6,105.6,18.2,37542,pacific,42.686342,-121.650125
comanche,tx,86.1,47.2,100.3,20.3,35434,west_south_central,31.947978,-98.558257
lavaca,tx,137.2,71.7,88.4,12.5,43827,west_south_central,29.384354,-96.930152
langlade,wi,100.7,43.2,116.9,16.1,42025,east_north_central,45.262358,-89.071899
la salle parish,la,96.3,43.4,135.1,20.9,42104,west_south_central,31.676732,-92.160437
jefferson,wi,132.7,34.5,131.1,10.6,52399,east_north_central,43.020816,-88.775874
wake,nc,138.8,33.7,138.4,10.9,65433,south_atlantic,35.790124,-78.650225
spotsylvania,va,119.0,34.4,117.9,7.7,73112,south_atlantic,38.185024,-77.655972
henderson,il,115.9,49.6,74.5,12.8,45022,east_north_central,40.818117,-90.925111
pike,ms,114.8,55.0,192.6,28.9,30835,east_south_central,31.174908,-90.404161
clay,tn,131.7,41.3,75.7,24.8,30587,east_south_central,36.551157,-85.543859
young,tx,106.4,45.1,87.8,18.2,44372,west_south_central,33.176696,-98.687767
richmond city,va,123.9,43.0,160.3,25.4,39249,south_atlantic,37.529421,-77.475559
marlboro,sc,102.9,47.6,197.6,31.3,31185,south_atlantic,34.601985,-79.678627
johnson,wy,119.8,35.2,112.7,8.7,51521,mountain,44.038775,-106.584633
jefferson,wa,125.4,32.5,171.0,13.6,47709,pacific,47.776554,-123.57431
lucas,ia,122.1,71.7,106.2,15.1,41011,west_north_central,41.029374,-93.327721
livingston parish,la,107.6,47.6,136.7,14.3,53118,west_south_central,30.440136,-90.727907
franklin,ny,114.4,44.6,134.7,22.4,42672,middle_atlantic,44.592934,-74.303762
greene,ga,146.1,39.2,121.4,23.1,42842,south_atlantic,33.578784,-83.166655
kings,ny,115.8,44.9,147.7,23.3,47067,middle_atlantic,40.634351,-73.950205
comanche,ok,120.6,49.3,98.8,20.2,42733,west_south_central,34.662101,-98.471661
union,sc,102.8,49.1,137.2,18.7,34042,south_atlantic,34.689282,-81.619415
pawnee,ok,104.8,34.5,94.0,15.4,42967,west_south_central,36.316927,-96.699299
haywood,tn,132.9,49.8,108.6,23.1,34557,east_south_central,35.583222,-89.283836
henderson,tx,105.9,49.5,93.5,21.8,39069,west_south_central,32.211894,-95.853555
floyd,ga,119.8,41.6,143.0,22.2,39381,south_atlantic,34.263163,-85.214279
shelby,tn,129.9,44.7,161.2,21.6,45067,east_south_central,35.183996,-89.895596
avoyelles parish,la,105.3,60.4,138.4,23.8,33240,west_south_central,31.076244,-92.001377
nicholas,wv,94.0,56.3,103.0,18.6,38451,south_atlantic,38.291701,-80.799328
anson,nc,135.7,44.3,110.3,28.8,33443,south_atlantic,34.973826,-80.102726
monongalia,wv,130.5,44.8,109.6,19.2,47281,south_atlantic,39.630284,-80.046544
phillips,ar,131.1,54.1,98.4,36.6,25894,west_south_central,34.428291,-90.848022
morgan,tn,116.2,36.5,110.5,24.0,38027,east_south_central,36.135024,-84.649204
jefferson,mt,112.6,42.9,95.9,10.5,59001,mountain,46.148451,-112.093785
contra costa,ca,129.5,41.5,136.9,10.8,78909,pacific,37.923419,-121.951212
san mateo,ca,135.9,36.6,129.7,8.0,91061,pacific,37.43621,-122.355663
wayne,oh,110.6,37.7,91.6,13.1,49580,east_north_central,40.828867,-81.888031
mohave,az,110.8,45.1,83.8,21.3,38560,mountain,35.70406,-113.757909
mitchell,tx,106.8,38.7,99.2,22.3,47677,west_south_central,32.306212,-100.921229
marquette,wi,108.3,37.5,94.6,11.5,47760,east_north_central,43.819582,-89.398749
bradford,fl,103.1,37.7,103.6,21.8,40668,south_atlantic,29.94996,-82.168778
barbour,al,132.6,49.6,159.8,28.2,30981,east_south_central,31.869603,-85.393197
richland,sc,137.6,34.4,145.7,18.6,47492,south_atlantic,34.021811,-80.903038
daviess,mo,78.2,57.1,104.8,18.9,38332,west_north_central,39.960745,-93.985467
logan,co,112.9,40.5,94.6,16.9,43561,mountain,40.724669,-103.110096
grand forks,nd,145.9,45.3,128.0,15.1,49697,west_north_central,47.921919,-97.456933
greene,mo,124.5,39.0,105.5,20.2,38525,west_north_central,37.258049,-93.34199
