name,state,lat,lon,score,commute,pop,region,division
Johnson City,TN,36.4703712463379,-82.4363861083984,0.0621988103,0.325,2,South,East South Central
Morristown,TN,36.0965385437012,-83.4072494506836,0.0536519401,0.276,2,South,East South Central
Middlesborough,TN,36.5515403747559,-83.5353317260742,0.0726351365,0.359,2,South,East South Central
Knoxville,TN,35.9522590637207,-84.242790222168,0.0562812127,0.269,3,South,East South Central
Winston-Salem,NC,36.0812759399414,-80.5053329467773,0.0448007919,0.292,2,South,South Atlantic
Martinsville,VA,36.7005882263184,-80.2941131591797,0.0518358536,0.313,2,South,South Atlantic
Greensboro,NC,36.311107635498,-79.7673873901367,0.0473969392,0.305,3,South,South Atlantic
North Wilkesboro,NC,36.2834167480469,-81.2522048950195,0.0516631268,0.289,2,South,South Atlantic
Galax,VA,36.5919990539551,-81.039924621582,0.0795698911,0.325,2,South,South Atlantic
Spartanburg,SC,34.8730812072754,-81.7859649658203,0.0431111902,0.299,2,South,South Atlantic
Gastonia,NC,35.4115333557129,-81.6222229003906,0.0515273064,0.288,2,South,South Atlantic
Charlotte,NC,35.0905609130859,-80.691764831543,0.0437852368,0.241,3,South,South Atlantic
Boone,NC,36.196964263916,-81.8403930664062,0.0560836494,0.375,2,South,South Atlantic
Morganton,NC,35.8018951416016,-81.9952087402344,0.0544464625,0.315,2,South,South Atlantic
Hickory,NC,35.8712272644043,-81.2875671386719,0.0449696705,0.322,2,South,South Atlantic
Franklin,NC,34.9771461486816,-83.3769378662109,0.0566615611,0.416,2,South,South Atlantic
Sylva,NC,35.347770690918,-83.4053268432617,0.0606653616,0.412,2,South,South Atlantic
Asheville,NC,35.5480651855469,-82.6990661621094,0.0633802786,0.314,2,South,South Atlantic
Andrews,NC,34.9651565551758,-83.8927536010742,0.0804810375,0.361,2,South,South Atlantic
Bennettsville,SC,34.5340118408203,-79.9775314331055,0.0297968406,0.34,2,South,South Atlantic
Florence,SC,33.9225311279297,-79.712776184082,0.0356782004,0.327,2,South,South Atlantic
Fayetteville,NC,35.0354957580566,-79.331413269043,0.0382470116,0.322,2,South,South Atlantic
Wilmington,NC,34.4779357910156,-78.3368682861328,0.0418033972,0.317,2,South,South Atlantic
Wilson,NC,35.9106788635254,-77.7810287475586,0.0319583789,0.36,2,South,South Atlantic
Raleigh,NC,35.7296524047852,-78.7137908935547,0.0499866344,0.25,3,South,South Atlantic
Henderson,NC,36.349494934082,-78.2416152954102,0.0336088166,0.345,2,South,South Atlantic
Goldsboro,NC,35.0529937744141,-78.1784744262695,0.0453549512,0.348,2,South,South Atlantic
Jacksonville,NC,35.192928314209,-77.1085052490234,0.0470072404,0.375,2,South,South Atlantic
Virginia Beach,VA,36.498649597168,-76.2944564819336,0.0535509437,0.253,3,South,South Atlantic
Washington,NC,35.6822280883789,-76.5391998291016,0.0497884788,0.387,2,South,South Atlantic
South Boston,VA,36.9987564086914,-78.5038604736328,0.0490487516,0.318,2,South,South Atlantic
Lynchburg,VA,37.3504180908203,-79.2872543334961,0.067359142,0.309,2,South,South Atlantic
Richmond,VA,37.4937553405762,-77.3593826293945,0.0547646731,0.238,3,South,South Atlantic
Newport News,VA,37.1789703369141,-76.745735168457,0.0513657629,0.29,2,South,South Atlantic
Roanoke Rapids,NC,36.2598991394043,-77.3320770263672,0.0327529013,0.357,2,South,South Atlantic
Gulfport,MS,30.6803550720215,-89.4176559448242,0.0671070293,0.298,2,South,East South Central
Laurel,MS,31.800952911377,-89.1161804199219,0.0692070574,0.32,2,South,East South Central
Hattiesburg,MS,31.2641201019287,-89.4493865966797,0.0605108887,0.358,2,South,East South Central
Kosciusko,MS,33.1420021057129,-90.0540618896484,0.0354896672,0.365,2,South,East South Central
Yazoo City,MS,32.897403717041,-90.47216796875,0.0247895233,0.417,2,South,East South Central
Jackson,MS,32.2902183532715,-90.2277221679688,0.0375340469,0.267,2,South,East South Central
McComb,MS,31.2274875640869,-90.7779388427734,0.0625297204,0.341,2,South,East South Central
Brookhaven,MS,31.5236892700195,-90.2544555664062,0.0642954856,0.321,2,South,East South Central
Jena,LA,31.5846118927002,-91.9713516235352,0.1264222562,0.369,1,South,West South Central
Natchez,MS,31.6362190246582,-91.4330596923828,0.0487460271,0.418,2,South,East South Central
Vicksburg,MS,32.1802291870117,-91.1058883666992,0.0311782081,0.379,2,South,East South Central
New Orleans,LA,30.0419330596924,-89.9018478393555,0.0512128659,0.247,3,South,West South Central
Houma,LA,29.544864654541,-90.8623275756836,0.1134691536,0.414,2,South,West South Central
Baton Rouge,LA,30.5509929656982,-91.1708374023438,0.0603968948,0.258,3,South,West South Central
Alexandria,LA,31.3210601806641,-92.3311233520508,0.0672128424,0.343,2,South,West South Central
Lake Charles,LA,30.6558399200439,-93.314323425293,0.0971184596,0.369,2,South,West South Central
Lafayette,LA,30.2178287506104,-91.953857421875,0.0950535387,0.339,2,South,West South Central
Monroe,LA,32.3551597595215,-91.7262649536133,0.0551850982,0.341,2,South,West South Central
Lake Providence,LA,32.7700843811035,-91.2655181884766,0.0573065914,0.393,1,South,West South Central
Magnolia,AR,33.2614669799805,-93.628547668457,0.060388945,0.463,2,South,West South Central
Shreveport,LA,32.0001945495605,-93.1822052001953,0.0527185053,0.312,2,South,West South Central
Ruston,LA,32.1847763061523,-92.6748275756836,0.0688279271,0.464,2,South,West South Central
Many,LA,31.4778690338135,-93.6567306518555,0.1516079605,0.306,1,South,West South Central
Crossett,AR,33.1967811584473,-92.0092163085938,0.041538462,0.502,1,South,West South Central
Pine Bluff,AR,33.6581268310547,-91.5339050292969,0.0428298265,0.396,2,South,West South Central
El Dorado,AR,33.5784034729004,-92.5011444091797,0.0566330478,0.437,2,South,West South Central
Little Rock,AR,34.7950592041016,-92.6370162963867,0.0535617173,0.293,2,South,West South Central
Stuttgart,AR,34.4396324157715,-91.3426666259766,0.0539629012,0.529,2,South,West South Central
Searcy,AR,35.3877983093262,-91.454719543457,0.0891045406,0.421,2,South,West South Central
London,KY,37.024299621582,-84.0044937133789,0.0638953075,0.345,2,South,East South Central
Richmond,KY,37.589282989502,-84.1347045898438,0.0590868406,0.35,2,South,East South Central
West Liberty,KY,37.6686782836914,-83.3554000854492,0.0684385374,0.295,2,South,East South Central
Hazard,KY,37.1504173278809,-83.1802062988281,0.1306593716,0.315,2,South,East South Central
Campbellsville,KY,37.2286758422852,-85.249870300293,0.0714285746,0.404,2,South,East South Central
Somerset,KY,36.7019195556641,-84.5739974975586,0.0627145097,0.372,2,South,East South Central
Greenwood,MS,33.5430183410645,-90.0163497924805,0.0331106596,0.435,2,South,East South Central
Clarksdale,MS,34.1848678588867,-90.2487945556641,0.0271325037,0.41,2,South,East South Central
Greenville,MS,33.2874450683594,-90.9878692626953,0.0221015904,0.498,2,South,East South Central
Jackson,TN,35.6781158447266,-88.8984222412109,0.0474881269,0.366,2,South,East South Central
Dyersburg,TN,35.9390640258789,-89.5839614868164,0.0431115292,0.442,2,South,East South Central
Lexington,TN,35.6141738891602,-88.0600204467773,0.0816599727,0.341,2,South,East South Central
Tupelo,MS,34.0106201171875,-88.6931762695312,0.0435734168,0.341,2,South,East South Central
Corinth,MS,35.0568542480469,-88.3704833984375,0.06576325,0.372,2,South,East South Central
New Albany,MS,34.6554679870605,-88.9695587158203,0.0546255521,0.299,2,South,East South Central
Memphis,TN,35.0354385375977,-90.0650634765625,0.0281827394,0.224,3,South,East South Central
West Memphis,AR,34.7605514526367,-90.5962371826172,0.0320140719,0.416,2,South,West South Central
Bowling Green,KY,36.9742088317871,-86.3613433837891,0.0642673522,0.375,2,South,East South Central
Glasgow,KY,36.8960647583008,-85.7584686279297,0.0613557659,0.376,2,South,East South Central
Columbia,TN,35.5133590698242,-87.1828079223633,0.0570192672,0.304,2,South,East South Central
Nashville,TN,36.0064163208008,-86.4776077270508,0.0572634488,0.24,3,South,East South Central
Tullahoma,TN,35.4622421264648,-86.3036117553711,0.0614474267,0.37,2,South,East South Central
Dickson,TN,36.0888633728027,-87.8451919555664,0.0715361461,0.33,2,South,East South Central
Clarksville,TN,36.6690673828125,-87.5625991821289,0.0599688478,0.319,2,South,East South Central
Huntsville,AL,34.855583190918,-86.7002639770508,0.0566761531,0.286,2,South,East South Central
Gadsden,AL,34.3181457519531,-86.0703277587891,0.071056664,0.328,2,South,East South Central
Florence,AL,35.096565246582,-87.5710220336914,0.0710671544,0.33,2,South,East South Central
McMinnville,TN,35.8743438720703,-85.6722869873047,0.0572254322,0.367,2,South,East South Central
Cookeville,TN,36.3022613525391,-85.4125366210938,0.0720288083,0.38,2,South,East South Central
Chattanooga,TN,35.1550254821777,-85.337043762207,0.0570530631,0.256,2,South,East South Central
Crossville,TN,35.9107475280762,-84.981071472168,0.0708446875,0.338,2,South,East South Central
Ellijay,GA,34.6945686340332,-84.3799591064453,0.064965196,0.292,2,South,South Atlantic
Cleveland,TN,35.4968109130859,-84.543327331543,0.0668229759,0.343,2,South,East South Central
Rome,GA,34.4316864013672,-85.1338729858398,0.0484621339,0.301,2,South,South Atlantic
Tampa,FL,28.1531715393066,-82.4193954467773,0.060128428,0.264,3,South,South Atlantic
Lakeland,FL,27.7498950958252,-81.4550399780273,0.0520584956,0.289,2,South,South Atlantic
Sarasota,FL,27.1796760559082,-82.2600936889648,0.0683156624,0.319,3,South,South Atlantic
Miami,FL,25.5369129180908,-80.6895523071289,0.0729660839,0.198,3,South,South Atlantic
Port St. Lucie,FL,27.1259841918945,-80.8225402832031,0.062430378,0.26,3,South,South Atlantic
Cape Coral,FL,26.4002437591553,-81.7269973754883,0.0601915196,0.273,3,South,South Atlantic
Palm Bay,FL,28.3434429168701,-80.7524337768555,0.0658892095,0.3,2,South,South Atlantic
Orlando,FL,28.5010166168213,-81.4672393798828,0.0578166097,0.212,3,South,South Atlantic
Deltona,FL,29.2213096618652,-81.4155960083008,0.0587789156,0.303,2,South,South Atlantic
Jacksonville,FL,30.4425716400146,-81.7244110107422,0.0492131598,0.229,3,South,South Atlantic
Lake City,FL,30.1301002502441,-83.1948776245117,0.049539458,0.339,2,South,South Atlantic
Ocala,FL,29.1660633087158,-82.1488647460938,0.0564204939,0.273,2,South,South Atlantic
Gainesville,FL,29.6797657012939,-82.6522445678711,0.0496746562,0.321,2,South,South Atlantic
Sumter,SC,33.9842262268066,-80.3857803344727,0.0349367075,0.33,2,South,South Atlantic
Columbia,SC,33.8458404541016,-80.9798583984375,0.0372132659,0.28,3,South,South Atlantic
Barnwell,SC,32.9641990661621,-81.2760009765625,0.0353721455,0.349,2,South,South Atlantic
Charleston,SC,33.056827545166,-80.1714706420898,0.0444692373,0.269,2,South,South Atlantic
Greenville,SC,34.444034576416,-82.5311050415039,0.0469857492,0.308,3,South,South Atlantic
Aiken,GA,33.4064865112305,-82.2422409057617,0.0410487503,0.275,2,South,South Atlantic
Washington,GA,33.6700859069824,-82.8233413696289,0.031144781,0.341,2,South,South Atlantic
Fitzgerald,GA,31.6627140045166,-83.2339935302734,0.0359147042,0.458,1,South,South Atlantic
Cordele,GA,32.033317565918,-83.5846252441406,0.0330490395,0.43,2,South,South Atlantic
Valdosta,GA,31.2604084014893,-83.3960266113281,0.0318490118,0.422,2,South,South Atlantic
Waycross,GA,31.2826557159424,-82.57080078125,0.0445917435,0.41,2,South,South Atlantic
Brunswick,GA,31.302375793457,-81.708869934082,0.0473826714,0.348,2,South,South Atlantic
Hinesville,GA,31.7835903167725,-81.7807998657227,0.0489417985,0.413,2,South,South Atlantic
Statesboro,GA,32.6167068481445,-81.9179534912109,0.0388888903,0.398,2,South,South Atlantic
Savannah,GA,32.2408256530762,-81.0676116943359,0.0409670919,0.297,2,South,South Atlantic
Macon,GA,32.5219421386719,-83.9226989746094,0.0326111726,0.294,2,South,South Atlantic
Vidalia,GA,32.0088043212891,-82.6852188110352,0.0480652973,0.391,2,South,South Atlantic
Milledgeville,GA,33.156005859375,-83.0629272460938,0.0322265625,0.36,2,South,South Atlantic
Dublin,GA,32.7125244140625,-82.7807083129883,0.0320269689,0.343,2,South,South Atlantic
Atlanta,GA,33.8539428710938,-84.2125625610352,0.0453297347,0.178,3,South,South Atlantic
Griffin,GA,33.1149978637695,-84.2098388671875,0.0402813293,0.315,2,South,South Atlantic
Winder,GA,33.9783325195312,-83.3426895141602,0.0379506648,0.323,2,South,South Atlantic
Toccoa,GA,34.2676086425781,-83.0066680908203,0.0416666679,0.407,2,South,South Atlantic
Gainesville,GA,34.4037170410156,-83.6861419677734,0.069715701,0.269,2,South,South Atlantic
Talladega,AL,33.1638946533203,-86.1251373291016,0.0449032262,0.339,2,South,East South Central
LaGrange,GA,33.5284309387207,-85.4132308959961,0.0523430221,0.294,2,South,South Atlantic
Columbus,GA,32.6434173583984,-84.7794570922852,0.0349603333,0.325,2,South,South Atlantic
Americus,GA,32.257884979248,-84.4287796020508,0.0344074294,0.409,2,South,South Atlantic
Auburn,AL,32.3696784973145,-85.6117477416992,0.0342648029,0.38,2,South,East South Central
Tallahassee,FL,30.4377670288086,-84.7893295288086,0.0470258147,0.275,2,South,South Atlantic
Panama City,FL,30.0905723571777,-85.3004837036133,0.0581574887,0.358,2,South,South Atlantic
Bainbridge,GA,31.0324802398682,-84.7773666381836,0.0393333323,0.39,2,South,South Atlantic
Thomasville,GA,30.9123077392578,-84.0003814697266,0.0328861959,0.389,2,South,South Atlantic
Albany,GA,31.53928565979,-84.1598281860352,0.0276326872,0.35,2,South,South Atlantic
Eufaula,GA,31.6915855407715,-84.9840850830078,0.022954924,0.388,2,South,South Atlantic
Dothan,AL,31.4178009033203,-85.4327774047852,0.0582822077,0.361,2,South,East South Central
Meridian,MS,32.5009651184082,-88.8334197998047,0.0467728749,0.333,2,South,East South Central
Columbus,MS,33.3776626586914,-88.3316268920898,0.0360278524,0.362,2,South,East South Central
Starkville,MS,33.4253387451172,-88.9440841674805,0.0399361029,0.437,2,South,East South Central
Jasper,AL,33.7509765625,-87.3326416015625,0.0865883604,0.32,2,South,East South Central
Birmingham,AL,33.4854469299316,-86.7145309448242,0.0504318327,0.22,3,South,East South Central
Tuscaloosa,AL,32.8385696411133,-87.3525161743164,0.0403225794,0.343,2,South,East South Central
Demopolis,AL,32.5304336547852,-87.9114608764648,0.042383045,0.337,2,South,East South Central
Pensacola,FL,30.5462055206299,-86.7144317626953,0.0612063408,0.309,2,South,South Atlantic
Mobile,AL,31.4869632720947,-87.666259765625,0.0513980016,0.267,2,South,East South Central
Atmore,AL,31.4372310638428,-87.3446884155273,0.0477876104,0.39,2,South,East South Central
Montgomery,AL,32.2923164367676,-86.4008636474609,0.0330373719,0.278,2,South,East South Central
Troy,AL,31.7107219696045,-86.189453125,0.0679886714,0.409,2,South,East South Central
Bluefield,VA,37.1378021240234,-81.580436706543,0.1107491851,0.32,2,South,South Atlantic
Welch,WV,37.4899940490723,-81.6393432617188,0.1599147171,0.263,2,South,South Atlantic
Big Stone Gap,VA,36.9120674133301,-82.72314453125,0.1036082506,0.317,2,South,South Atlantic
Fredericksburg,VA,38.0942306518555,-77.4250640869141,0.0945812836,0.205,2,South,South Atlantic
Baltimore,MD,39.2704734802246,-76.7990646362305,0.064007394,0.199,3,South,South Atlantic
Colonial Beach,VA,37.9297065734863,-76.796630859375,0.0654515326,0.31,2,South,South Atlantic
Washington DC,DC,38.9264755249023,-77.4324722290039,0.1098117381,0.16,3,NA,NA
Marquette,MI,46.1725540161133,-86.9097442626953,0.0965651348,0.501,2,North Central,East North Central
Marinette,MI,45.6683578491211,-88.1482696533203,0.1027253643,0.525,2,North Central,East North Central
Sault Ste. Marie,MI,46.1847114562988,-84.5001525878906,0.0991831943,0.539,2,North Central,East North Central
Jackson,MI,41.9445495605469,-84.3774566650391,0.0630887821,0.356,2,North Central,East North Central
Detroit,MI,42.7676162719727,-83.2955093383789,0.0545927621,0.243,3,North Central,East North Central
Lansing,MI,42.6758804321289,-84.648681640625,0.0641167387,0.356,2,North Central,East North Central
Mount Pleasant,MI,43.562671661377,-84.7600479125977,0.0646153837,0.467,2,North Central,East North Central
Saginaw,MI,43.6854476928711,-83.6669769287109,0.0644080862,0.376,2,North Central,East North Central
Big Rapids,MI,44.0386199951172,-85.3946990966797,0.0743079185,0.407,2,North Central,East North Central
Ludington,MI,44.122974395752,-86.1842346191406,0.0760736167,0.493,2,North Central,East North Central
Kalamazoo,MI,42.3128662109375,-85.5140533447266,0.0526231341,0.36,2,North Central,East North Central
Grand Rapids,MI,43.1889839172363,-85.7264099121094,0.063729167,0.344,3,North Central,East North Central
Traverse City,MI,44.8549652099609,-85.5310363769531,0.0742486715,0.356,2,North Central,East North Central
Petoskey,MI,45.3941383361816,-84.7933502197266,0.0765550211,0.428,2,North Central,East North Central
Alpena,MI,45.0324363708496,-83.6990737915039,0.078644067,0.472,2,North Central,East North Central
Grayling charter,MI,44.6857032775879,-84.4363555908203,0.0748898685,0.457,2,North Central,East North Central
Dayton,OH,40.0221176147461,-84.1028137207031,0.0488145053,0.341,3,North Central,East North Central
Washington Court House,OH,39.2948684692383,-83.5627670288086,0.0533333346,0.345,2,North Central,East North Central
Wayne,IN,39.7046165466309,-85.0427474975586,0.0539811067,0.464,2,North Central,East North Central
Cincinnati,OH,38.8519401550293,-84.2685470581055,0.0512119494,0.258,3,North Central,East North Central
Maysville,KY,38.4998893737793,-83.6712799072266,0.0528455302,0.322,2,South,East South Central
Washington,IN,39.0648803710938,-85.0641784667969,0.1065877154,0.314,2,North Central,East North Central
Lexington-Fayette,KY,38.1320838928223,-84.5081634521484,0.0537449978,0.345,2,South,East South Central
Mount Sterling,KY,38.0783996582031,-83.6634368896484,0.0622914359,0.323,2,South,East South Central
Danville,KY,37.7040634155273,-84.7249908447266,0.0727496892,0.353,2,South,East South Central
Elizabethtown,KY,37.7544479370117,-86.0881271362305,0.081598945,0.338,2,South,East South Central
Louisville,KY,38.2993583679199,-85.6781463623047,0.051995486,0.261,3,South,East South Central
Madison,IN,38.6902122497559,-85.3903198242188,0.0938271582,0.411,2,North Central,East North Central
Bardstown,KY,37.6990623474121,-85.40478515625,0.0762167126,0.373,2,South,East South Central
Owensboro,KY,37.5197410583496,-86.9816970825195,0.0923025683,0.387,2,South,East South Central
Findlay,OH,40.9678688049316,-83.3274612426758,0.0736145601,0.457,2,North Central,East North Central
Lima,OH,40.7105560302734,-84.2717895507812,0.0694817677,0.445,2,North Central,East North Central
Toledo,OH,41.5681457519531,-83.6778793334961,0.0574808046,0.345,3,North Central,East North Central
Defiance,OH,41.3234443664551,-84.5065536499023,0.0814732164,0.437,2,North Central,East North Central
South Bend,IN,41.6564559936523,-86.3163223266602,0.0601345673,0.385,2,North Central,East North Central
Concord,IN,41.6202926635742,-85.4939270019531,0.0734009892,0.405,2,North Central,East North Central
Wayne,IN,41.0524978637695,-85.9183959960938,0.0915141404,0.439,2,North Central,East North Central
Center,IN,40.6478614807129,-86.2592697143555,0.0661350861,0.451,2,North Central,East North Central
Muncie,IN,40.2140159606934,-85.4548721313477,0.0531732403,0.417,2,North Central,East North Central
Fort Wayne,IN,41.0252723693848,-85.1665344238281,0.0659465641,0.352,2,North Central,East North Central
Indianapolis,IN,39.611385345459,-86.122688293457,0.0490063243,0.262,3,North Central,East North Central
Columbus,IN,38.8266105651855,-85.8469085693359,0.0746864304,0.404,2,North Central,East North Central
Terre Haute,IN,39.5072402954102,-87.3151550292969,0.082625255,0.391,2,North Central,East North Central
Lafayette,IN,40.3285369873047,-87.0883178710938,0.0908335671,0.429,2,North Central,East North Central
Bloomington,IN,38.8078384399414,-86.9038391113281,0.0871858522,0.397,2,North Central,East North Central
Evansville,IN,38.1533546447754,-87.454719543457,0.0792389214,0.366,2,North Central,East North Central
Olney,IL,38.2621994018555,-88.0994873046875,0.1169398874,0.486,2,North Central,East North Central
Vincennes,IN,38.6371536254883,-87.4358901977539,0.1098398194,0.488,2,North Central,East North Central
Gary,IN,41.2179756164551,-87.2666168212891,0.081390135,0.277,2,North Central,East North Central
Canton,OH,40.519172668457,-81.465934753418,0.0649108514,0.378,3,North Central,East North Central
Lorain,OH,41.2349052429199,-82.3657455444336,0.0566001162,0.362,2,North Central,East North Central
Cleveland,OH,41.2727546691895,-81.4847259521484,0.050859265,0.268,3,North Central,East North Central
Parkersburg,WV,39.1996803283691,-81.4451217651367,0.0708944052,0.346,2,South,South Atlantic
Zanesville,OH,39.7343330383301,-81.7836303710938,0.0684076101,0.346,2,North Central,East North Central
Steubenville,OH,40.4033126831055,-80.7016906738281,0.0727181509,0.378,2,North Central,East North Central
Wheeling,WV,39.6376495361328,-80.8091583251953,0.1254040152,0.343,2,South,South Atlantic
Scioto,OH,39.01025390625,-82.9105377197266,0.0648590028,0.322,2,North Central,East North Central
Athens,OH,38.9975662231445,-82.0629959106445,0.0747126415,0.359,2,North Central,East North Central
Columbus,OH,39.9555130004883,-82.7316818237305,0.049094066,0.271,3,North Central,East North Central
Mansfield,OH,40.6658096313477,-82.7405624389648,0.0644607842,0.403,2,North Central,East North Central
State College,PA,40.8506507873535,-78.1835327148438,0.1131276488,0.397,2,Northeast,Middle Atlantic
Altoona,PA,40.2173004150391,-78.6428298950195,0.1023769081,0.391,2,Northeast,Middle Atlantic
Pittsburgh,PA,40.5679092407227,-79.5761260986328,0.09514869,0.287,3,Northeast,Middle Atlantic
Youngstown,OH,41.016960144043,-80.6030731201172,0.0669745952,0.374,3,North Central,East North Central
Erie,PA,41.3742065429688,-79.5036315917969,0.0751668066,0.427,2,Northeast,Middle Atlantic
Roanoke,VA,37.3139152526855,-80.1677627563477,0.0640164241,0.334,2,South,South Atlantic
Elkins,WV,38.7990913391113,-79.7854919433594,0.1057993695,0.388,2,South,South Atlantic
Morgantown,WV,39.3572540283203,-80.3536605834961,0.1049584672,0.336,2,South,South Atlantic
Buckhannon,WV,38.926456451416,-80.3829650878906,0.1264108419,0.377,2,South,South Atlantic
Beckley,WV,37.9249839782715,-80.8328170776367,0.1064450294,0.33,2,South,South Atlantic
Summersville,WV,38.5716857910156,-80.7836837768555,0.1285289675,0.329,2,South,South Atlantic
Charleston,WV,38.1433944702148,-81.7158126831055,0.0972293913,0.28,2,South,South Atlantic
Spencer,WV,38.7986145019531,-81.213020324707,0.1465677172,0.268,1,South,South Atlantic
Pikeville,KY,37.7573471069336,-82.6051483154297,0.1378403753,0.295,2,South,East South Central
Huntington,KY,38.2893447875977,-82.8904647827148,0.0685057491,0.343,2,South,East South Central
Harrisonburg,VA,38.7607040405273,-78.7827987670898,0.0938897133,0.378,2,South,South Atlantic
Staunton,VA,37.8701171875,-79.5354461669922,0.0680161938,0.344,2,South,South Atlantic
Hagerstown,PA,39.7436256408691,-77.9620590209961,0.0870945826,0.298,2,Northeast,Middle Atlantic
Cumberland,MD,39.2735443115234,-78.8268737792969,0.0969055369,0.373,2,South,South Atlantic
Winchester,VA,39.2103652954102,-78.4002304077148,0.0972972959,0.301,2,South,South Atlantic
Charlottesville,VA,38.0418243408203,-78.2333831787109,0.0613825992,0.282,2,South,South Atlantic
Syracuse,NY,43.084644317627,-75.6718292236328,0.076672107,0.378,3,Northeast,Middle Atlantic
Oneonta,NY,42.4394607543945,-75.0704956054688,0.0928838924,0.405,2,Northeast,Middle Atlantic
Union,NY,42.1343231201172,-76.0699844360352,0.088044025,0.363,2,Northeast,Middle Atlantic
Buffalo,NY,42.7380714416504,-77.7660903930664,0.066782549,0.333,3,Northeast,Middle Atlantic
Elmira,NY,42.3245124816895,-76.8524780273438,0.0936922133,0.411,2,Northeast,Middle Atlantic
Olean,NY,42.1064071655273,-78.447868347168,0.0801330507,0.455,2,Northeast,Middle Atlantic
St. Marys,PA,41.3966979980469,-78.6627578735352,0.1629834324,0.53,2,Northeast,Middle Atlantic
Watertown,NY,44.1033897399902,-75.5392837524414,0.1011804417,0.471,2,Northeast,Middle Atlantic
Plattsburgh,NY,44.331298828125,-73.7126007080078,0.0854566842,0.47,2,Northeast,Middle Atlantic
Amsterdam,NY,43.2861976623535,-74.4513702392578,0.082840234,0.416,2,Northeast,Middle Atlantic
Albany,NY,42.8572311401367,-73.8589172363281,0.0833333358,0.317,3,Northeast,Middle Atlantic
Sunbury,PA,40.8595542907715,-76.8812713623047,0.1113667712,0.396,2,Northeast,Middle Atlantic
Scranton,PA,41.2837600708008,-75.5423889160156,0.1074531749,0.351,3,Northeast,Middle Atlantic
Williamsport,PA,41.2774848937988,-77.2385025024414,0.1016209498,0.414,2,Northeast,Middle Atlantic
Allentown,PA,40.8401222229004,-75.4598083496094,0.0826314986,0.329,2,Northeast,Middle Atlantic
Reading,PA,40.153995513916,-76.2531967163086,0.0963095427,0.344,3,Northeast,Middle Atlantic
Harrisburg,PA,40.3097534179688,-77.1747894287109,0.0792682916,0.314,3,Northeast,Middle Atlantic
Poughkeepsie,NY,41.7227630615234,-74.4587554931641,0.0948357806,0.301,3,Northeast,Middle Atlantic
New York,NY,40.8868293762207,-73.4934310913086,0.1050008386,0.156,3,Northeast,Middle Atlantic
Toms River,NJ,40.027587890625,-74.3227462768555,0.1222978607,0.263,3,Northeast,Middle Atlantic
Newark,NJ,40.7106246948242,-74.6487045288086,0.1024259701,0.234,3,Northeast,Middle Atlantic
Philadelphia,PA,39.8666076660156,-75.3061828613281,0.0740116686,0.246,3,Northeast,Middle Atlantic
Wilmington,DE,39.5715065002441,-75.7440795898438,0.0657239258,0.251,2,South,South Atlantic
Dover,DE,38.5384826660156,-75.5329818725586,0.0625960082,0.358,2,South,South Atlantic
Easton,MD,38.7869148254395,-76.0423736572266,0.0626359284,0.32,2,South,South Atlantic
Chincoteague,VA,37.6719169616699,-75.6961898803711,0.0445141047,0.393,2,South,South Atlantic
Bangor,ME,44.9682998657227,-69.0667114257812,0.0809096843,0.403,2,Northeast,New England
Calais,ME,44.9989395141602,-67.6050033569336,0.0680272132,0.493,2,Northeast,New England
Presque Isle,ME,46.3964767456055,-68.5269775390625,0.0855855867,0.512,2,Northeast,New England
Portland,ME,44.7340354919434,-69.9392471313477,0.0805980191,0.363,3,Northeast,New England
Burlington,VT,44.0672149658203,-73.0345230102539,0.0931878537,0.366,2,Northeast,New England
Berlin,VT,44.4993209838867,-71.7748870849609,0.083530806,0.433,2,Northeast,New England
Claremont,VT,43.8187103271484,-72.2651672363281,0.078877002,0.383,2,Northeast,New England
Providence,RI,41.6681175231934,-71.3598098754883,0.0820953399,0.328,3,Northeast,New England
Nantucket,MA,41.3039436340332,-70.063362121582,0.0810810775,0.818,1,Northeast,New England
Oak Bluffs,MA,41.390796661377,-70.6558151245117,0.0676691756,0.576,1,Northeast,New England
Boston,MA,42.212329864502,-71.188606262207,0.1048499793,0.251,3,Northeast,New England
Manchester,NH,43.4739837646484,-71.297737121582,0.1001517475,0.301,3,Northeast,New England
Keene,NH,43.0325889587402,-72.474739074707,0.0901116431,0.407,2,Northeast,New England
Springfield,MA,42.3591499328613,-72.6502075195312,0.0680504739,0.342,2,Northeast,New England
Bridgeport,CT,41.6280708312988,-72.6092910766602,0.0786178932,0.308,3,Northeast,New England
Pittsfield,MA,42.6944618225098,-73.0525436401367,0.0865191147,0.479,2,Northeast,New England
Ashland,WI,46.1779747009277,-90.6493072509766,0.0910326093,0.533,2,North Central,East North Central
Houghton,MI,47.1474723815918,-88.5094833374023,0.1022727266,0.55,2,North Central,East North Central
Ironwood,MI,46.4919624328613,-89.6147308349609,0.1213872805,0.554,2,North Central,East North Central
Rhinelander,WI,45.8335456848145,-89.0856475830078,0.1062801927,0.509,2,North Central,East North Central
Rice Lake,WI,45.6672897338867,-91.4096221923828,0.1015262082,0.499,2,North Central,East North Central
Amery,WI,45.7065849304199,-92.5343780517578,0.1285500675,0.356,2,North Central,East North Central
Hutchinson,MN,44.8072204589844,-94.2248153686523,0.1770657599,0.464,2,North Central,West North Central
Redwood Falls,MN,44.5783004760742,-95.0502319335938,0.1971831024,0.571,2,North Central,West North Central
Mankato,MN,44.210090637207,-94.4642868041992,0.1263440847,0.563,2,North Central,West North Central
Owatonna,MN,44.1446380615234,-93.3868789672852,0.137931034,0.544,2,North Central,West North Central
St. Cloud,MN,45.5808372497559,-94.0343246459961,0.1268896013,0.398,2,North Central,West North Central
Minneapolis,MN,45.0522193908691,-93.2317886352539,0.0852011293,0.264,3,North Central,West North Central
Pine City,MN,45.988410949707,-92.7871551513672,0.1096979305,0.342,2,North Central,West North Central
Brainerd,MN,46.6966896057129,-94.1722030639648,0.0842745453,0.42,2,North Central,West North Central
Rochester,MN,44.2314186096191,-92.4435501098633,0.1421598494,0.469,2,North Central,West North Central
Austin,MN,43.6721839904785,-93.0618896484375,0.1177325547,0.555,2,North Central,West North Central
Mason City,IA,43.2174186706543,-93.4568328857422,0.1265984625,0.58,2,North Central,West North Central
Decorah,IA,43.2467956542969,-92.3541717529297,0.1657142788,0.542,2,North Central,West North Central
Marshalltown,IA,41.8321647644043,-92.8246612548828,0.1126346737,0.535,2,North Central,West North Central
Waterloo,IA,42.5283737182617,-92.3131866455078,0.1224658638,0.492,2,North Central,West North Central
Iowa Falls,IA,42.5082550048828,-93.2544174194336,0.1357615888,0.561,2,North Central,West North Central
Iowa City,IA,41.4012718200684,-91.2396545410156,0.0931849778,0.432,2,North Central,West North Central
Cedar Rapids,IA,41.9913520812988,-91.6312637329102,0.1173184365,0.42,2,North Central,West North Central
Ottumwa,IA,41.0566139221191,-92.4260864257812,0.1244979948,0.493,2,North Central,West North Central
Sheboygan,WI,43.9855575561523,-87.8510437011719,0.1380908191,0.512,2,North Central,East North Central
Oshkosh,WI,44.002685546875,-88.8022613525391,0.1148549691,0.445,2,North Central,East North Central
Green Bay,WI,44.8735694885254,-87.7272033691406,0.0910990387,0.427,2,North Central,East North Central
Shawano,WI,45.0303230285645,-88.799934387207,0.0839002281,0.447,2,North Central,East North Central
Wausau,WI,44.5141868591309,-90.0060272216797,0.1244852692,0.46,2,North Central,East North Central
Eau Claire,WI,44.4200897216797,-91.5252075195312,0.1130195782,0.463,2,North Central,East North Central
La Crosse,WI,43.8980979919434,-90.6592102050781,0.1181933284,0.45,2,North Central,East North Central
Monroe,WI,42.8756561279297,-90.5752639770508,0.1671388149,0.461,2,North Central,East North Central
Madison,WI,43.4425773620605,-89.6100234985352,0.0921911746,0.365,2,North Central,East North Central
Dubuque,IA,42.7233352661133,-90.9662704467773,0.1594827622,0.524,2,North Central,West North Central
Charleston,IL,39.4560966491699,-87.8572311401367,0.0958677679,0.481,2,North Central,East North Central
Douglas,IL,38.9690818786621,-88.233268737793,0.1015452519,0.485,2,North Central,East North Central
Bloomington,IL,40.5317306518555,-88.8387069702148,0.0845864639,0.496,2,North Central,East North Central
Decatur,IL,39.9406585693359,-88.5191116333008,0.0677927956,0.451,2,North Central,East North Central
Burlington,IA,40.6801147460938,-91.4277954101562,0.1022797301,0.502,2,North Central,West North Central
Galesburg,IL,40.5695343017578,-90.2203521728516,0.0885935798,0.509,2,North Central,East North Central
Davenport,IL,41.4243698120117,-90.5065460205078,0.0809443519,0.393,2,North Central,East North Central
Clinton,IA,42.0050468444824,-90.4713363647461,0.1138790026,0.479,2,North Central,West North Central
Peoria,IL,40.542537689209,-89.7173233032227,0.0717817843,0.394,2,North Central,East North Central
Kenosha,WI,42.671745300293,-88.4470291137695,0.0691956431,0.384,2,North Central,East North Central
Milwaukee,WI,43.2040901184082,-88.3217849731445,0.0445706695,0.312,3,North Central,East North Central
Bourbonnais,IL,40.9501686096191,-87.9118118286133,0.0730964467,0.41,2,North Central,East North Central
Chicago,IL,41.7979202270508,-88.1881637573242,0.0649292618,0.201,3,North Central,East North Central
Rockford,IL,41.9806289672852,-89.5600738525391,0.0735386536,0.4,2,North Central,East North Central
Rolla,MO,37.5368385314941,-91.3987579345703,0.0797373354,0.463,2,North Central,West North Central
Farmington,MO,37.7623176574707,-90.2458267211914,0.0852446482,0.368,2,North Central,West North Central
St. Louis,MO,38.4731979370117,-90.7478713989258,0.0505231395,0.241,3,North Central,West North Central
Mexico,MO,39.0269927978516,-91.6614379882812,0.0756756738,0.463,2,North Central,West North Central
Jacksonville,IL,39.7390823364258,-90.4029922485352,0.0911504403,0.472,2,North Central,East North Central
Springfield,IL,39.9170379638672,-89.5787887573242,0.0673715994,0.367,2,North Central,East North Central
Edwardsville,IL,39.0804786682129,-90.1977081298828,0.0872936994,0.336,2,North Central,East North Central
Quincy,IL,39.625057220459,-91.1898193359375,0.0896204859,0.496,2,North Central,East North Central
Mountain Home,AR,36.2963218688965,-92.4921569824219,0.0895061716,0.393,2,South,West South Central
West Plains,MO,37.0019378662109,-91.5573043823242,0.0815548748,0.416,2,North Central,West North Central
Harrison,AR,36.113468170166,-93.2631530761719,0.0997150987,0.419,2,South,West South Central
Heber Springs,AR,35.7785453796387,-92.1270904541016,0.1096006781,0.364,2,South,West South Central
Batesville,AR,35.9889717102051,-91.6276931762695,0.0960288793,0.375,2,South,West South Central
Henderson,KY,37.485294342041,-87.7652893066406,0.099227801,0.401,2,South,East South Central
Union City,TN,36.506534576416,-89.1215896606445,0.073929958,0.403,2,South,East South Central
Paducah,KY,37.0740814208984,-88.6710662841797,0.0744777471,0.378,2,South,East South Central
Murray,KY,36.6015777587891,-88.1674652099609,0.0704545453,0.521,2,South,East South Central
Centralia,IL,38.3731422424316,-89.072021484375,0.0813443735,0.407,2,North Central,East North Central
Carbondale,IL,37.5473556518555,-89.4100799560547,0.0790478364,0.418,2,North Central,East North Central
Harrisburg,IL,37.704460144043,-88.2475967407227,0.1121372059,0.429,2,North Central,East North Central
Cape Girardeau,MO,36.898811340332,-89.6321792602539,0.0600515455,0.436,2,North Central,West North Central
Poplar Bluff,MO,36.8894805908203,-90.4970626831055,0.0668257773,0.401,2,North Central,West North Central
Blytheville,AR,36.0380096435547,-89.9065399169922,0.0514018685,0.475,2,South,West South Central
Jonesboro,AR,36.1401557922363,-90.7039337158203,0.0810322613,0.442,2,South,West South Central
Roseau,MN,48.7619743347168,-95.3607406616211,0.1875,0.533,1,North Central,West North Central
Duluth,MN,47.5231513977051,-92.2538833618164,0.0891148299,0.437,2,North Central,West North Central
West Cook UT,MN,48.0081367492676,-90.2893295288086,0.1016949117,0.588,1,North Central,West North Central
International Falls,MN,48.3436889648438,-93.7525177001953,0.174129352,0.618,1,North Central,West North Central
Moberly,MO,39.6471519470215,-92.274787902832,0.1013727561,0.468,2,North Central,West North Central
Marshall,MO,39.3893966674805,-93.2859725952148,0.0948379338,0.559,2,North Central,West North Central
Brookfield,MO,39.5413818359375,-93.1195678710938,0.1119221374,0.475,1,North Central,West North Central
Trenton,MO,40.2886543273926,-93.5600128173828,0.1083333343,0.497,1,North Central,West North Central
Polk,MO,40.3893051147461,-92.8665390014648,0.0871369317,0.405,1,North Central,West North Central
Centerville,IA,40.8051719665527,-93.1888275146484,0.1467181444,0.517,2,North Central,West North Central
Kirksville,MO,40.3530540466309,-92.505500793457,0.1134380475,0.575,2,North Central,West North Central
Bismarck,ND,46.9527359008789,-101.24137878418,0.186741367,0.541,2,North Central,West North Central
East Grant UT,ND,46.174503326416,-101.601203918457,NA,0.552,1,North Central,West North Central
Linton,ND,46.3125801086426,-100.160751342773,0.2989130318,0.646,1,North Central,West North Central
Steele,ND,46.9510536193848,-99.8482208251953,NA,0.54,1,North Central,West North Central
Devils Lake,ND,48.0773315429688,-98.7287750244141,0.096474953,0.627,1,North Central,West North Central
Carrington,ND,47.5969772338867,-98.8668365478516,0.3333333433,0.656,1,North Central,West North Central
Turtle Mountain UT,ND,48.6522941589355,-99.5281753540039,0.0825545192,0.574,1,North Central,West North Central
Minot,ND,48.4435234069824,-101.18293762207,0.2241784036,0.606,2,North Central,West North Central
Rugby,ND,47.8406753540039,-99.9386520385742,0.219101131,0.665,1,North Central,West North Central
Ekalaka,SD,45.6770401000977,-104.398811340332,0.2297297269,0.665,1,North Central,West North Central
Baker,MT,46.3325843811035,-104.440422058105,0.2127659619,0.713,1,West,Mountain
Bowman,ND,46.3399276733398,-103.425262451172,0.4696969688,0.648,1,North Central,West North Central
Lemmon,ND,45.9655799865723,-102.420112609863,0.3571428657,0.704,1,North Central,West North Central
Scobey,MT,48.7802352905273,-105.599838256836,NA,0.71,1,West,Mountain
Wolf Point,MT,47.9735641479492,-105.277793884277,0.0941883773,0.7,1,West,Mountain
Plentywood,MT,48.6474342346191,-104.65380859375,0.3181818128,0.681,1,West,Mountain
Glasgow,MT,47.9512710571289,-107.298034667969,0.1660649776,0.697,1,West,Mountain
Glendive,MT,47.0760231018066,-104.580238342285,0.2666666806,0.735,1,West,Mountain
Dickinson,ND,47.3269577026367,-102.613540649414,0.329207927,0.659,1,North Central,West North Central
Sidney,ND,47.976993560791,-103.932495117188,0.2505694628,0.637,1,North Central,West North Central
Williston,ND,48.2544097900391,-103.339866638184,0.3383084536,0.702,1,North Central,West North Central
Brookings,SD,44.2527122497559,-97.0456924438477,0.1666666716,0.64,2,North Central,West North Central
Madison,SD,44.0035781860352,-97.3513641357422,0.1843575388,0.632,1,North Central,West North Central
Sioux Falls,SD,43.2444381713867,-96.8639984130859,0.1186331436,0.439,2,North Central,West North Central
Watertown,SD,44.7741546630859,-97.2051086425781,0.1435294151,0.595,2,North Central,West North Central
Milbank,MN,45.4473838806152,-96.5079879760742,0.1702127606,0.65,1,North Central,West North Central
Sisseton,SD,45.5108833312988,-97.1130447387695,0.107066378,0.563,1,North Central,West North Central
East Corson UT,SD,46.0272445678711,-101.020462036133,0.0700280145,0.505,1,North Central,West North Central
Mobridge,SD,45.6210784912109,-100.26685333252,0.1111111119,0.708,1,North Central,West North Central
Aberdeen,SD,45.3348693847656,-98.8909072875977,0.1992687434,0.676,2,North Central,West North Central
Bemidji,MN,47.464656829834,-95.277946472168,0.0952868834,0.449,2,North Central,West North Central
Grafton,ND,48.4641265869141,-97.401252746582,0.2325581461,0.582,2,North Central,West North Central
Thief River Falls,MN,48.2184143066406,-96.7299499511719,0.1787564754,0.534,1,North Central,West North Central
Grand Forks,ND,47.631103515625,-96.8492813110352,0.1279491782,0.613,2,North Central,West North Central
Fargo,ND,46.7821769714355,-96.8047027587891,0.1358173043,0.518,2,North Central,West North Central
Lisbon,ND,46.1610984802246,-97.9004364013672,0.2352941185,0.606,1,North Central,West North Central
Jamestown,ND,46.8599853515625,-98.5546875,0.2240566015,0.667,2,North Central,West North Central
Cooperstown,ND,47.3991737365723,-98.2317657470703,NA,0.615,1,North Central,West North Central
Fergus Falls,MN,45.9277229309082,-95.8051071166992,0.1523076892,0.526,2,North Central,West North Central
Little Falls,MN,46.2309341430664,-94.5944213867188,0.1645569652,0.435,2,North Central,West North Central
O'Neill,NE,42.4437103271484,-98.7092666625977,0.1893491149,0.653,1,North Central,West North Central
Ord,NE,41.712028503418,-99.0196533203125,0.2392344475,0.658,1,North Central,West North Central
Ainsworth,NE,42.5554466247559,-99.7006912231445,0.1920529753,0.67,1,North Central,West North Central
Winner,SD,43.4869003295898,-99.5870895385742,0.1392857134,0.673,1,North Central,West North Central
Yankton,SD,42.8132400512695,-97.7685089111328,0.1712000072,0.583,2,North Central,West North Central
Mitchell,SD,43.7194900512695,-98.2380447387695,0.1338199526,0.641,1,North Central,West North Central
Huron,SD,44.2393493652344,-98.4064025878906,0.1204819307,0.67,1,North Central,West North Central
Parkston,SD,43.1798553466797,-98.4186553955078,0.157107234,0.613,1,North Central,West North Central
Chamberlain,SD,43.847541809082,-99.7316207885742,0.0804195777,0.6,1,North Central,West North Central
Miller,SD,44.5331344604492,-99.2775802612305,0.3150684834,0.697,1,North Central,West North Central
Pierre,SD,44.5327339172363,-100.434280395508,0.0924369767,0.767,1,North Central,West North Central
Gettysburg,SD,45.0510025024414,-100.195465087891,0.3265306056,0.729,1,North Central,West North Central
Willmar,MN,45.0299758911133,-95.7932357788086,0.1247139573,0.549,2,North Central,West North Central
Marshall,MN,44.1432304382324,-96.1117172241211,0.153061226,0.621,2,North Central,West North Central
Sioux Center,IA,43.2065963745117,-96.3176116943359,0.2307692319,0.629,2,North Central,West North Central
Worthington,MN,43.7808990478516,-95.4412689208984,0.1402936429,0.589,2,North Central,West North Central
Spencer,IA,43.2080116271973,-94.7032241821289,0.1850079745,0.598,2,North Central,West North Central
Fairmont,MN,43.5703163146973,-94.3489074707031,0.1287128776,0.576,2,North Central,West North Central
Storm Lake,IA,42.5063896179199,-95.3256225585938,0.1734317392,0.614,2,North Central,West North Central
Fort Dodge,IA,42.4745178222656,-94.1821441650391,0.1300448477,0.572,2,North Central,West North Central
Des Moines,IA,41.6039848327637,-93.9295120239258,0.0910248235,0.384,2,North Central,West North Central
Creston,IA,40.8755035400391,-94.0072784423828,0.1245136186,0.556,2,North Central,West North Central
Atlantic,IA,41.5310440063477,-95.0605239868164,0.1515837163,0.557,2,North Central,West North Central
Carroll,IA,42.0172080993652,-94.8914413452148,0.1672354937,0.611,2,North Central,West North Central
Rapid City,SD,43.9553756713867,-102.985694885254,0.0930329561,0.484,2,North Central,West North Central
Eagle Butte,SD,44.8710060119629,-100.94905090332,0.05111821,0.578,1,North Central,West North Central
Southwest Jackson UT,SD,44.2099189758301,-101.566413879395,0.1103448272,0.669,1,North Central,West North Central
Murdo,SD,43.7982406616211,-100.711044311523,NA,0.715,1,North Central,West North Central
Mission,SD,43.6780586242676,-100.702262878418,0.0242537316,0.465,1,North Central,West North Central
Scottsbluff,NE,42.1022415161133,-103.237144470215,0.1194029823,0.642,2,North Central,West North Central
Cheyenne,WY,41.2267875671387,-103.619277954102,0.0956375822,0.564,2,West,Mountain
Torrington,WY,42.0708351135254,-104.755416870117,0.171581775,0.624,1,West,Mountain
Gordon,SD,42.9795875549316,-102.420791625977,0.0319488831,0.588,1,North Central,West North Central
Virginia Beach,NE,42.0407600402832,-97.6046447753906,0.1516079605,0.614,2,North Central,West North Central
Columbus,NE,41.4536361694336,-97.6625366210938,0.1691842973,0.581,2,North Central,West North Central
Hastings,NE,40.3708229064941,-98.4005584716797,0.1111111119,0.599,2,North Central,West North Central
York,NE,41.0392227172852,-97.6013412475586,0.1868131906,0.628,1,North Central,West North Central
Grand Island,NE,41.1507186889648,-98.0804901123047,0.1420996785,0.561,2,North Central,West North Central
Sioux City,IA,42.4197807312012,-96.4562072753906,0.1125235409,0.454,2,North Central,West North Central
West Point,NE,41.9670219421387,-96.3958435058594,0.100386098,0.551,1,North Central,West North Central
Lincoln,NE,40.5198974609375,-96.8775787353516,0.0913167521,0.434,2,North Central,West North Central
Nebraska City,NE,40.315299987793,-95.7429656982422,0.1583514065,0.514,2,North Central,West North Central
Red Oak,IA,40.838794708252,-95.2053680419922,0.1242138371,0.55,2,North Central,West North Central
Omaha,NE,41.3732566833496,-96.0118179321289,0.0775407478,0.349,3,North Central,West North Central
Sterling,CO,40.2619552612305,-102.941719055176,0.1446345299,0.64,2,West,Mountain
Ogallala,NE,41.021427154541,-101.926559448242,0.1622807086,0.614,1,North Central,West North Central
Oshkosh,NE,41.5615425109863,-102.358543395996,NA,0.677,1,North Central,West North Central
Valentine,NE,42.2140884399414,-101.297538757324,0.145348832,0.704,1,North Central,West North Central
Broken Bow,NE,41.6120452880859,-99.9864883422852,0.1764705926,0.63,1,North Central,West North Central
North Platte,NE,41.278678894043,-100.81453704834,0.1227678582,0.598,2,North Central,West North Central
Colorado Springs,CO,38.3224334716797,-105.356147766113,0.089342691,0.311,2,West,Mountain
Limon,CO,38.9132118225098,-103.501205444336,0.1785714328,0.631,1,West,Mountain
Springfield,CO,37.3058547973633,-102.721206665039,0.1919191927,0.667,1,West,Mountain
Pueblo,CO,38.0061569213867,-103.660545349121,0.0656216815,0.44,2,West,Mountain
Trinidad,CO,37.6306228637695,-104.934707641602,0.1176470593,0.579,1,West,Mountain
Burlington,CO,38.8101425170898,-102.805702209473,0.204651162,0.655,1,West,Mountain
Oberlin,KS,39.7994422912598,-100.807014465332,0.2432432473,0.645,1,North Central,West North Central
Norton,KS,39.7069816589355,-99.9901733398438,0.1686746925,0.735,1,North Central,West North Central
Phillipsburg,KS,39.7482604980469,-99.084831237793,0.1486486495,0.652,1,North Central,West North Central
Colby,KS,39.066593170166,-100.723945617676,0.1958762854,0.72,1,North Central,West North Central
Goodland,KS,39.0880584716797,-101.69017791748,0.1949152499,0.716,1,North Central,West North Central
Wano,KS,39.9409866333008,-101.708808898926,0.2045454532,0.661,1,North Central,West North Central
McCook,NE,40.3337936401367,-101.12816619873,0.1824561357,0.681,1,North Central,West North Central
Kearney,NE,40.6866874694824,-99.045539855957,0.1644295305,0.603,2,North Central,West North Central
Lexington,NE,40.4506645202637,-99.8502349853516,0.1652777791,0.642,2,North Central,West North Central
Salida,CO,38.7574195861816,-106.205490112305,0.0894736871,0.644,1,West,Mountain
Glenwood Springs,CO,39.4495620727539,-106.726539611816,0.1690140814,0.424,2,West,Mountain
Granby,CO,40.1051750183105,-106.005493164062,0.0754716992,0.458,1,West,Mountain
Laramie,WY,41.119514465332,-106.113212585449,0.1628664434,0.755,2,West,Mountain
Fort Collins,CO,40.085018157959,-104.999366760254,0.1153677776,0.388,2,West,Mountain
Denver,CO,39.8737144470215,-105.126136779785,0.0870277509,0.23,3,West,Mountain
Pratt,KS,37.4480171203613,-98.84619140625,0.1551724076,0.706,1,North Central,West North Central
Coldwater,KS,37.1599464416504,-99.2806625366211,NA,0.648,1,North Central,West North Central
Dodge City,KS,37.6102981567383,-99.9319229125977,0.1133093536,0.62,2,North Central,West North Central
Great Bend,KS,38.2106246948242,-99.0215377807617,0.1312803924,0.59,2,North Central,West North Central
Hutchinson,KS,38.2410125732422,-98.1981658935547,0.1073891595,0.522,2,North Central,West North Central
Hays,KS,38.9188270568848,-99.2211227416992,0.1578947306,0.711,2,North Central,West North Central
Township 11,KS,39.3125343322754,-99.6424331665039,0.1151079163,0.63,1,North Central,West North Central
Center,KS,38.479606628418,-100.085990905762,0.1494252831,0.671,1,North Central,West North Central
Concordia,KS,39.680534362793,-97.8416595458984,0.152823925,0.62,1,North Central,West North Central
Superior,NE,40.1240043640137,-97.8256378173828,0.1863353997,0.634,1,North Central,West North Central
Beloit,KS,39.3434638977051,-98.4854736328125,0.1503759325,0.69,1,North Central,West North Central
Salina,KS,39.0212440490723,-97.8871536254883,0.0829986632,0.594,2,North Central,West North Central
Hiawatha,KS,39.7535018920898,-95.8358383178711,0.1718213111,0.578,1,North Central,West North Central
Marysville,KS,39.7686767578125,-96.8196640014648,0.145228222,0.557,1,North Central,West North Central
Manhattan,KS,39.08251953125,-96.5464096069336,0.0885311887,0.558,2,North Central,West North Central
Topeka,KS,39.0243988037109,-95.847053527832,0.0704687983,0.397,2,North Central,West North Central
Wichita,KS,37.520824432373,-97.5765991210938,0.0722466931,0.344,2,North Central,West North Central
Newton,KS,38.2679824829102,-97.3318862915039,0.1034965068,0.563,2,North Central,West North Central
Winfield,KS,37.460880279541,-96.3221664428711,0.1098626703,0.504,2,North Central,West North Central
Ottawa,KS,38.2016677856445,-95.3749542236328,0.0926395953,0.444,2,North Central,West North Central
Emporia,KS,38.3217277526855,-96.1186904907227,0.1094017103,0.595,2,North Central,West North Central
Bartlesville,KS,37.1653289794922,-95.5712280273438,0.089498803,0.529,2,North Central,West North Central
Leavenworth,KS,39.2769317626953,-95.0571975708008,0.0803461075,0.425,2,North Central,West North Central
Kansas City,MO,38.8295593261719,-94.3817443847656,0.0701465756,0.281,3,North Central,West North Central
St. Joseph,MO,39.8095703125,-94.72216796875,0.0831134543,0.406,2,North Central,West North Central
Sedalia,MO,38.2539405822754,-93.558349609375,0.0825631544,0.437,2,North Central,West North Central
Polk,MO,40.2349052429199,-95.2944183349609,0.1127450988,0.569,2,North Central,West North Central
Bethany,MO,40.3535690307617,-94.2919845581055,0.1208459213,0.468,1,North Central,West North Central
Columbia,MO,38.809684753418,-92.4945755004883,0.0655129775,0.422,2,North Central,West North Central
Eldon,MO,38.1600875854492,-92.6218490600586,0.0677856654,0.336,2,North Central,West North Central
Springfield,MO,37.4749717712402,-92.9565582275391,0.0714676157,0.344,2,North Central,West North Central
Aurora,MO,36.802604675293,-93.4975433349609,0.0748914629,0.363,2,North Central,West North Central
Joplin,MO,37.2266082763672,-94.7157211303711,0.0722867027,0.454,2,North Central,West North Central
Center,MO,37.7702980041504,-94.0962448120117,0.0856643394,0.467,2,North Central,West North Central
Russellville,AR,35.2363166809082,-93.5011291503906,0.0887360871,0.404,2,South,West South Central
Fort Smith,AR,35.1809616088867,-94.6526184082031,0.0939385965,0.371,2,South,West South Central
Muskogee,OK,35.6208419799805,-95.3609848022461,0.0631011054,0.388,2,South,West South Central
Fayetteville,AR,36.1406059265137,-93.9666748046875,0.0918065161,0.378,2,South,West South Central
Stillwater,OK,36.2519454956055,-97.0795364379883,0.0984643176,0.568,2,South,West South Central
Tulsa,OK,36.3555793762207,-96.0058746337891,0.0783574954,0.323,3,South,West South Central
Okmulgee,OK,35.5346832275391,-96.2062530517578,0.0810611621,0.369,2,South,West South Central
Woodward,OK,36.3311462402344,-99.5493392944336,0.200000003,0.556,1,South,West South Central
Enid,OK,36.3940048217773,-98.6559677124023,0.1492687911,0.561,2,South,West South Central
El Paso,TX,31.5354995727539,-105.859382629395,0.0864412785,0.28,3,South,West South Central
Alamogordo,NM,33.1880378723145,-105.501594543457,0.0849557519,0.447,2,West,Mountain
Truth or Consequences,NM,32.9778213500977,-107.568260192871,0.081272088,0.6,1,West,Mountain
Deming,NM,32.6858901977539,-107.963706970215,0.0697278902,0.51,2,West,Mountain
Van Horn,TX,31.2084007263184,-104.736427307129,0.2234636843,0.753,1,South,West South Central
Roswell,NM,33.1401672363281,-104.325439453125,0.1166123748,0.539,2,West,Mountain
Santa Rosa,NM,34.5060882568359,-104.565170288086,0.1204819307,0.702,1,West,Mountain
Hobbs,NM,32.8736839294434,-103.114616394043,0.1619496793,0.598,2,West,Mountain
Lubbock,TX,33.3977088928223,-101.969863891602,0.0673753768,0.449,2,South,West South Central
Clovis,NM,34.3509559631348,-103.358520507812,0.0828157365,0.617,2,West,Mountain
Littlefield,TX,34.2419090270996,-102.468887329102,0.0803662241,0.607,2,South,West South Central
Amarillo,TX,35.016960144043,-102.076210021973,0.0861367062,0.438,2,South,West South Central
Pampa,TX,35.6877746582031,-100.796180725098,0.1533333361,0.549,2,South,West South Central
Wellington,TX,35.1179351806641,-100.259323120117,0.1336405575,0.64,1,South,West South Central
Memphis,TX,34.5850830078125,-100.850151062012,0.1171548143,0.601,1,South,West South Central
Matador,TX,34.0759429931641,-100.855758666992,NA,0.582,1,South,West South Central
Plainview,TX,34.2349853515625,-101.677635192871,0.0848522931,0.612,2,South,West South Central
Garden City,KS,37.9037780761719,-101.044975280762,0.1089108884,0.586,2,North Central,West North Central
Ulysses,KS,37.4209480285645,-101.449340820312,0.190721646,0.685,1,North Central,West North Central
Scott City,KS,38.4598960876465,-101.361518859863,0.191304341,0.658,1,North Central,West North Central
Liberal,KS,37.0461921691895,-100.481628417969,0.1211453751,0.642,2,North Central,West North Central
Perryton,TX,36.3008232116699,-100.772438049316,0.2328358144,0.632,1,South,West South Central
Guymon,OK,36.7060203552246,-101.82502746582,0.1617021263,0.609,2,South,West South Central
Dumas,TX,35.9725379943848,-102.514724731445,0.1360153258,0.611,2,South,West South Central
Victoria,TX,28.643892288208,-96.8904342651367,0.1014729962,0.425,2,South,West South Central
La Grange,TX,29.8095932006836,-96.6481399536133,0.114014253,0.457,2,South,West South Central
Gonzales,TX,29.4550743103027,-97.4857635498047,0.0696202517,0.492,1,South,West South Central
Austin,TX,30.3460788726807,-97.3492889404297,0.0693216324,0.249,3,South,West South Central
Burnet,TX,30.7476081848145,-98.3323822021484,0.0947368443,0.349,2,South,West South Central
San Antonio,TX,29.3254833221436,-98.3233032226562,0.0643825904,0.242,3,South,West South Central
Beeville,TX,28.5498275756836,-97.6544952392578,0.1021594703,0.466,2,South,West South Central
Kerrville,TX,30.1375942230225,-99.226936340332,0.0956375822,0.471,2,South,West South Central
Mason,TX,30.7203540802002,-99.2017440795898,0.1744185984,0.589,1,South,West South Central
Midland,TX,31.5839157104492,-102.464363098145,0.1788869947,0.462,2,South,West South Central
Pecos,TX,31.5871601104736,-103.23291015625,0.2329545468,0.632,2,South,West South Central
Fort Stockton,TX,30.8465766906738,-102.181854248047,0.2227805704,0.664,1,South,West South Central
Alpine,TX,29.7494506835938,-103.635215759277,0.1802656502,0.705,1,South,West South Central
Crystal City,TX,28.5983295440674,-99.6863174438477,0.0832049325,0.606,1,South,West South Central
Pearsall,TX,28.5215797424316,-99.1302490234375,0.09375,0.544,1,South,West South Central
Laredo,TX,27.3538513183594,-99.1148910522461,0.108853586,0.327,2,South,West South Central
Brownsville,TX,26.2901172637939,-97.8867797851562,0.0916091129,0.343,3,South,West South Central
Corpus Christi,TX,27.7055282592773,-97.4435424804688,0.1055676043,0.387,2,South,West South Central
College Station,TX,30.6951713562012,-96.4033737182617,0.0777777806,0.451,2,South,West South Central
Pearland,TX,29.2001705169678,-95.8137359619141,0.1157161221,0.291,2,South,West South Central
Houston,TX,29.9028282165527,-95.5459060668945,0.0927379802,0.21,3,South,West South Central
Beaumont,TX,30.648624420166,-94.03515625,0.094970569,0.337,2,South,West South Central
Huntsville,TX,31.2139835357666,-95.265251159668,0.0773425847,0.411,2,South,West South Central
Nacogdoches,TX,31.5270881652832,-94.1027450561523,0.093918398,0.439,2,South,West South Central
San Angelo,TX,31.4733448028564,-100.759674072266,0.0863864273,0.479,2,South,West South Central
Brady,TX,31.4680957794189,-99.5421981811523,0.1181434616,0.577,1,South,West South Central
Junction,TX,30.6518516540527,-99.7238006591797,0.0734693855,0.542,1,South,West South Central
Uvalde,TX,29.9200191497803,-100.020957946777,0.0968436152,0.58,2,South,West South Central
Del Rio,TX,30.0164203643799,-101.532440185547,0.1230604574,0.515,2,South,West South Central
Eagle Pass,TX,28.5439357757568,-100.34016418457,0.100081034,0.526,2,South,West South Central
Big Spring,TX,32.1483917236328,-101.563087463379,0.1144414172,0.633,2,South,West South Central
Sweetwater,TX,32.4817771911621,-100.380096435547,0.1220285296,0.588,1,South,West South Central
Snyder,TX,32.726921081543,-100.849517822266,0.1560891867,0.608,1,South,West South Central
Abilene,TX,32.4658317565918,-99.2288284301758,0.1032919884,0.487,2,South,West South Central
Childress,TX,34.2973518371582,-100.163948059082,0.0782608688,0.757,1,South,West South Central
Haskell,TX,33.619556427002,-99.8993225097656,0.1690140814,0.612,1,South,West South Central
Wichita Falls,TX,33.9784851074219,-98.3824691772461,0.0966044962,0.441,2,South,West South Central
Graham,TX,33.1651992797852,-98.5917892456055,0.1759398431,0.548,1,South,West South Central
Seymour,TX,33.5981521606445,-99.2113494873047,0.0860215053,0.674,1,South,West South Central
Vernon,TX,34.1137962341309,-99.5828475952148,0.0880733952,0.678,1,South,West South Central
Brownwood,TX,31.3928127288818,-99.0878524780273,0.1086637303,0.495,2,South,West South Central
Stephenville,TX,31.9958343505859,-98.3416976928711,0.1141975299,0.523,2,South,West South Central
Waco,TX,31.7745532989502,-97.3319702148438,0.0675374344,0.363,2,South,West South Central
Corsicana,TX,31.6485042572021,-96.0071182250977,0.1013043448,0.377,2,South,West South Central
Killeen,TX,31.1772727966309,-98.1207427978516,0.0772482678,0.383,2,South,West South Central
Fort Worth,TX,32.9755783081055,-97.7361831665039,0.0913628563,0.24,3,South,West South Central
Dallas,TX,33.3759765625,-96.9760665893555,0.0710824654,0.218,3,South,West South Central
Paris,TX,33.589714050293,-95.3130340576172,0.0767123252,0.39,2,South,West South Central
Tyler,TX,32.015209197998,-95.6436920166016,0.0951065049,0.33,2,South,West South Central
Longview,TX,32.3712310791016,-94.6648025512695,0.1141970754,0.361,2,South,West South Central
Texarkana,TX,33.4860382080078,-94.2661209106445,0.0788930878,0.399,2,South,West South Central
Lawton,OK,34.1608734130859,-98.0752716064453,0.1048808843,0.472,2,South,West South Central
Altus,OK,34.6671600341797,-99.3089218139648,0.1121495292,0.621,2,South,West South Central
Frederick,OK,34.3735809326172,-99.0044326782227,0.0743034035,0.538,1,South,West South Central
Ardmore,OK,34.0510444641113,-97.0431671142578,0.1107882336,0.442,2,South,West South Central
Elk City,OK,35.531982421875,-99.3613891601562,0.1871988922,0.604,2,South,West South Central
Chickasha,OK,35.2133979797363,-98.0712890625,0.1154462844,0.382,2,South,West South Central
Oklahoma City,OK,35.4306831359863,-97.1959533691406,0.0820752904,0.305,3,South,West South Central
Ada,OK,34.7829170227051,-96.4050521850586,0.1167294234,0.458,2,South,West South Central
Sherman,TX,33.860767364502,-96.4016571044922,0.0884798095,0.372,2,South,West South Central
Hot Springs,AR,34.0640487670898,-93.462532043457,0.0707567334,0.384,2,South,West South Central
Idabel,OK,33.9497184753418,-94.8076782226562,0.0922787189,0.423,2,South,West South Central
Havre,MT,48.1714363098145,-109.412696838379,0.0821484998,0.714,1,West,Mountain
Shelby,MT,48.5029525756836,-113.255950927734,0.0475059375,0.664,1,West,Mountain
Great Falls,MT,47.3781547546387,-111.069396972656,0.0963597447,0.538,2,West,Mountain
Lewistown,MT,47.3193817138672,-108.902824401855,0.1716417968,0.685,1,West,Mountain
Cody,WY,44.3489227294922,-108.963806152344,0.1474036872,0.617,2,West,Mountain
Worland,WY,43.7189445495605,-108.455688476562,0.1306532621,0.766,1,West,Mountain
Riverton,WY,43.4414443969727,-109.151588439941,0.1243184283,0.632,2,West,Mountain
Sheridan,WY,44.9746780395508,-107.365310668945,0.1044932082,0.583,2,West,Mountain
Miles City,MT,46.6650810241699,-105.343276977539,0.1792828739,0.755,1,West,Mountain
Jordan,MT,47.4496040344238,-107.190254211426,NA,0.739,1,West,Mountain
Colstrip,MT,46.1281814575195,-107.025497436523,0.088888891,0.693,1,West,Mountain
Billings,MT,45.9727478027344,-108.364715576172,0.1305191666,0.446,2,West,Mountain
Harlowton,MT,46.6356086730957,-110.863861083984,0.200000003,0.696,1,West,Mountain
Dillon,MT,45.0694007873535,-112.863098144531,0.116883114,0.73,1,West,Mountain
Bozeman,MT,45.4459915161133,-111.284934997559,0.1259689927,0.527,2,West,Mountain
Helena,MT,46.6794281005859,-112.109184265137,0.1197410971,0.472,2,West,Mountain
Butte-Silver Bow,MT,46.2734794616699,-113.062614440918,0.089366518,0.61,2,West,Mountain
Bonners Ferry,ID,48.7867660522461,-116.683563232422,0.0991379321,0.438,1,West,Mountain
Libby,MT,48.2843475341797,-115.327323913574,0.1302605271,0.599,1,West,Mountain
Kalispell,MT,48.0249977111816,-114.455520629883,0.1108414233,0.45,2,West,Mountain
Missoula,MT,46.5549201965332,-114.380409240723,0.1056273058,0.467,2,West,Mountain
Gillette,WY,44.2510757446289,-105.158653259277,0.2641843855,0.536,2,West,Mountain
Rawlins,WY,41.5921669006348,-107.257133483887,0.1934156418,0.722,1,West,Mountain
Casper,WY,42.7822189331055,-106.016143798828,0.1662689,0.528,2,West,Mountain
Lusk,WY,43.089038848877,-104.457618713379,NA,0.72,1,West,Mountain
Las Vegas,NM,36.0686874389648,-104.827262878418,0.0858484209,0.537,2,West,Mountain
Santa Fe,NM,36.2350006103516,-105.962219238281,0.0803233162,0.371,2,West,Mountain
Tucumcari,NM,35.6330223083496,-103.997459411621,0.0730337054,0.689,1,West,Mountain
Clayton,NM,36.2873802185059,-103.414817810059,0.1223021597,0.625,1,West,Mountain
Alamosa,CO,37.7030296325684,-105.865020751953,0.098867923,0.552,2,West,Mountain
Albuquerque,NM,35.3091621398926,-106.686538696289,0.0659846142,0.273,3,West,Mountain
Socorro,NM,33.9917869567871,-107.257507324219,0.052117262,0.565,1,West,Mountain
Phoenix,AZ,34.0149688720703,-111.294647216797,0.0752772912,0.242,3,West,Mountain
Safford,AZ,33.3510894775391,-109.825134277344,0.1105919033,0.53,2,West,Mountain
Tucson,AZ,32.0897750854492,-111.015380859375,0.0705499947,0.291,3,West,Mountain
Grand Junction,CO,38.246826171875,-107.929718017578,0.1463671476,0.465,2,West,Mountain
Gunnison,CO,38.5557060241699,-106.978370666504,0.1061946899,0.644,1,West,Mountain
Farmington,NM,37.3590621948242,-107.683326721191,0.0914475247,0.388,2,West,Mountain
Flagstaff,AZ,35.6864929199219,-111.797515869141,0.0814509094,0.461,2,West,Mountain
Cortez,CO,37.6879768371582,-109.932220458984,0.1267806292,0.502,2,West,Mountain
Gallup,AZ,34.4800491333008,-109.363136291504,0.0410613976,0.468,2,West,Mountain
Twin Falls,ID,43.3184967041016,-114.11206817627,0.0871191844,0.505,2,West,Mountain
Burley,ID,42.5788764953613,-113.599784851074,0.113892369,0.536,2,West,Mountain
Boise City,ID,43.8810119628906,-115.838821411133,0.0739204213,0.342,2,West,Mountain
Ontario,OR,44.1263122558594,-117.264678955078,0.0844841599,0.49,2,West,Pacific
McCall,ID,44.7264404296875,-115.799903869629,0.1240310073,0.561,1,West,Mountain
St. George,UT,38.0471305847168,-112.823417663574,0.1084832922,0.575,2,West,Mountain
Price,UT,39.1939926147461,-110.503723144531,0.1373439282,0.577,2,West,Mountain
Moab,UT,38.9266014099121,-109.901496887207,0.1179775298,0.752,1,West,Mountain
Richfield,UT,38.2386169433594,-111.56950378418,0.1286031008,0.633,1,West,Mountain
Loa,UT,38.3174514770508,-110.32356262207,0.2096774131,0.628,1,West,Mountain
Provo,UT,39.7420043945312,-112.007392883301,0.1375119984,0.454,2,West,Mountain
Salt Lake City,UT,40.61962890625,-111.572448730469,0.108327426,0.294,3,West,Mountain
Logan,UT,41.9872283935547,-111.994789123535,0.1369095296,0.528,2,West,Mountain
Pocatello,ID,43.6178512573242,-112.316856384277,0.0925086662,0.517,2,West,Mountain
Salmon,ID,44.6172065734863,-114.175308227539,0.1549295783,0.582,1,West,Mountain
Jackson,WY,43.9552993774414,-110.605415344238,0.1139240488,0.488,1,West,Mountain
Steamboat Springs,CO,40.4096908569336,-107.309448242188,0.1589041054,0.549,2,West,Mountain
Vernal,UT,40.2199554443359,-109.915977478027,0.2533783913,0.557,2,West,Mountain
Soda Springs,ID,42.5429382324219,-111.763107299805,0.1769911498,0.575,1,West,Mountain
Rock Springs,WY,41.9130210876465,-110.03832244873,0.2053941935,0.545,2,West,Mountain
Klamath Falls,CA,41.1564483642578,-121.740371704102,0.0856175944,0.528,2,West,Pacific
Burns,OR,43.0806770324707,-119.109016418457,0.1393939406,0.73,1,West,Pacific
Lakeview,OR,42.7652053833008,-120.350387573242,0.1098265871,0.692,1,West,Pacific
Redding,CA,40.3078002929688,-122.163536071777,0.0880713463,0.424,2,West,Pacific
Eureka,CA,40.842227935791,-123.048484802246,0.0757927299,0.497,2,West,Pacific
Medford,OR,42.6183967590332,-123.281646728516,0.0719680116,0.429,2,West,Pacific
Crescent City,CA,42.3174858093262,-123.932952880859,0.0834224597,0.626,2,West,Pacific
Roseburg,OR,43.0709075927734,-123.371940612793,0.0819778815,0.462,2,West,Pacific
Modesto,CA,37.6686401367188,-120.41040802002,0.0936282724,0.372,3,West,Pacific
Bakersfield,CA,35.3061866760254,-119.108604431152,0.1216197163,0.362,2,West,Pacific
Fresno,CA,36.7168731689453,-119.227890014648,0.0748793706,0.351,3,West,Pacific
Chico,CA,39.5398712158203,-121.665008544922,0.0948425978,0.442,2,West,Pacific
Sacramento,CA,38.5452499389648,-120.881065368652,0.0969090089,0.285,3,West,Pacific
San Jose,CA,36.794002532959,-121.291488647461,0.1293258816,0.244,3,West,Pacific
Elko,NV,39.8185768127441,-116.75122833252,0.1602941155,0.513,2,West,Mountain
Winnemucca,NV,41.0092391967773,-118.409187316895,0.1695501804,0.496,1,West,Mountain
Portola,CA,39.9761695861816,-120.850761413574,0.1176470593,0.552,1,West,Pacific
Reno,NV,39.5042724609375,-118.756866455078,0.0910304934,0.378,2,West,Mountain
Santa Rosa,CA,38.9323234558105,-122.767791748047,0.0995508954,0.349,2,West,Pacific
San Francisco,CA,38.0660629272461,-122.198585510254,0.1215258688,0.212,3,West,Pacific
Las Vegas,NV,36.0594253540039,-114.026496887207,0.0800290108,0.245,3,West,Mountain
Reno,NV,38.641918182373,-118.591743469238,0.1097560972,0.687,1,West,Mountain
Mammoth Lakes,CA,37.272533416748,-118.70630645752,0.1159420311,0.64,2,West,Pacific
San Diego,CA,33.1088333129883,-117.107269287109,0.1043647528,0.247,3,West,Pacific
Yuma,CA,33.0404739379883,-114.670593261719,0.0982132256,0.45,2,West,Pacific
Santa Barbara,CA,34.8693542480469,-120.072280883789,0.112940833,0.448,2,West,Pacific
Los Angeles,CA,34.0751686096191,-116.288673400879,0.096090205,0.225,3,West,Pacific
Lewiston,ID,46.1207466125488,-115.768684387207,0.0902097896,0.555,2,West,Mountain
Pullman,WA,46.7306709289551,-117.456970214844,0.1423611045,0.557,2,West,Pacific
Moses Lake,WA,47.2981109619141,-119.342346191406,0.0965794772,0.512,2,West,Pacific
Wenatchee,WA,47.9200592041016,-120.148620605469,0.0935460478,0.503,2,West,Pacific
Spokane,WA,47.739501953125,-116.917655944824,0.0928014889,0.348,2,West,Pacific
Colville,WA,48.2558975219727,-119.368103027344,0.0975247547,0.427,2,West,Pacific
Longview,WA,46.4340553283691,-123.489311218262,0.0927726701,0.448,2,West,Pacific
Portland,OR,45.5073280334473,-122.585243225098,0.0930585414,0.258,3,West,Pacific
The Dalles,OR,45.380428314209,-120.97777557373,0.1043802425,0.53,2,West,Pacific
Eugene,OR,44.4636039733887,-122.91716003418,0.0788958147,0.381,3,West,Pacific
Newport,OR,45.1897888183594,-123.638946533203,0.0725744814,0.49,2,West,Pacific
Yakima,WA,46.9831886291504,-120.93709564209,0.0817065835,0.427,2,West,Pacific
Kennewick,WA,45.9214706420898,-118.693199157715,0.1058548018,0.453,2,West,Pacific
La Grande,OR,44.9051361083984,-117.899185180664,0.0876747146,0.645,2,West,Pacific
Enterprise,OR,45.5163421630859,-117.263938903809,0.143790856,0.644,1,West,Pacific
Bend,OR,44.2248649597168,-121.15111541748,0.0817263573,0.474,2,West,Pacific
Condon,OR,45.2196655273438,-120.325981140137,0.1086956486,0.546,1,West,Pacific
John Day,OR,44.5940246582031,-118.531196594238,0.1158536598,0.579,1,West,Pacific
Friday Harbor,WA,48.5253791809082,-123.052955627441,0.1016949117,0.628,1,West,Pacific
Bellingham,WA,48.8311538696289,-121.263442993164,0.1155751273,0.418,2,West,Pacific
Port Angeles,WA,47.9120674133301,-123.544647216797,0.0858400613,0.486,2,West,Pacific
Seattle,WA,47.6443939208984,-122.012229919434,0.1085509509,0.24,3,West,Pacific
